{
"type": "FeatureCollection",
"name": "countypoint",
"crs": { "type": "name", "properties": { "name": "urn:ogc:def:crs:OGC:1.3:CRS84" } },
"features": [
{ "type": "Feature", "properties": { "GID_0": "AFG", "NAME_0": "Afghanistan", "GID_1": "AFG.1_1", "NAME_1": "Badakhshan", "HASC_1": "AF.BD", "CARBON": 0.091924894795599996, "POPULATION": 1031769.9641400001, "PERCAPCARB": 8.9094369860300003e-08, "UNITTYPE": "STATE", "POPDENSITY": 233157.789238, "ORIG_FID": 1 }, "geometry": { "type": "Point", "coordinates": [ 71.194623947000082, 37.185536711000054 ] } },
{ "type": "Feature", "properties": { "GID_0": "AFG", "NAME_0": "Afghanistan", "GID_1": "AFG.2_1", "NAME_1": "Badghis", "HASC_1": "AF.BG", "CARBON": 0.10363675855399999, "POPULATION": 530950.85628199996, "PERCAPCARB": 1.95190868096e-07, "UNITTYPE": "STATE", "POPDENSITY": 260715.56789599999, "ORIG_FID": 2 }, "geometry": { "type": "Point", "coordinates": [ 63.752695915000061, 35.139751366000041 ] } },
{ "type": "Feature", "properties": { "GID_0": "AFG", "NAME_0": "Afghanistan", "GID_1": "AFG.3_1", "NAME_1": "Baghlan", "HASC_1": "AF.BL", "CARBON": 0.049542231442399998, "POPULATION": 960703.86358899996, "PERCAPCARB": 5.1568681380500002e-08, "UNITTYPE": "STATE", "POPDENSITY": 456730.18552100001, "ORIG_FID": 3 }, "geometry": { "type": "Point", "coordinates": [ 68.713876579000043, 35.705361723000067 ] } },
{ "type": "Feature", "properties": { "GID_0": "AFG", "NAME_0": "Afghanistan", "GID_1": "AFG.4_1", "NAME_1": "Balkh", "HASC_1": "AF.BK", "CARBON": 0.55651729410700002, "POPULATION": 1235980.70994, "PERCAPCARB": 4.5026373763899997e-07, "UNITTYPE": "STATE", "POPDENSITY": 710827.55516500003, "ORIG_FID": 4 }, "geometry": { "type": "Point", "coordinates": [ 67.13495651900007, 36.648027823000064 ] } },
{ "type": "Feature", "properties": { "GID_0": "AFG", "NAME_0": "Afghanistan", "GID_1": "AFG.5_1", "NAME_1": "Bamyan", "HASC_1": "AF.BM", "CARBON": 0.023500986104300001, "POPULATION": 383093.50245799997, "PERCAPCARB": 6.1345300699400002e-08, "UNITTYPE": "STATE", "POPDENSITY": 274642.18262199999, "ORIG_FID": 5 }, "geometry": { "type": "Point", "coordinates": [ 67.181307035000032, 34.721418678000077 ] } },
{ "type": "Feature", "properties": { "GID_0": "AFG", "NAME_0": "Afghanistan", "GID_1": "AFG.6_1", "NAME_1": "Daykundi", "HASC_1": "AF.DK", "CARBON": 0.0064481271946300002, "POPULATION": 503019.38179199997, "PERCAPCARB": 1.28188444184e-08, "UNITTYPE": "STATE", "POPDENSITY": 288660.08763999998, "ORIG_FID": 6 }, "geometry": { "type": "Point", "coordinates": [ 66.183992616000069, 33.754922451000027 ] } },
{ "type": "Feature", "properties": { "GID_0": "AFG", "NAME_0": "Afghanistan", "GID_1": "AFG.7_1", "NAME_1": "Farah", "HASC_1": "AF.FH", "CARBON": 0.098846070658399995, "POPULATION": 536025.56509499997, "PERCAPCARB": 1.84405515511e-07, "UNITTYPE": "STATE", "POPDENSITY": 115180.45699399999, "ORIG_FID": 7 }, "geometry": { "type": "Point", "coordinates": [ 62.649751665000053, 32.58339292900007 ] } },
{ "type": "Feature", "properties": { "GID_0": "AFG", "NAME_0": "Afghanistan", "GID_1": "AFG.8_1", "NAME_1": "Faryab", "HASC_1": "AF.FB", "CARBON": 0.085277444512999998, "POPULATION": 1027818.69149, "PERCAPCARB": 8.2969345877300003e-08, "UNITTYPE": "STATE", "POPDENSITY": 506175.04141800001, "ORIG_FID": 8 }, "geometry": { "type": "Point", "coordinates": [ 64.861968995000041, 36.199924422000038 ] } },
{ "type": "Feature", "properties": { "GID_0": "AFG", "NAME_0": "Afghanistan", "GID_1": "AFG.9_1", "NAME_1": "Ghazni", "HASC_1": "AF.GZ", "CARBON": 0.028881144802400002, "POPULATION": 1046099.56257, "PERCAPCARB": 2.7608409214499999e-08, "UNITTYPE": "STATE", "POPDENSITY": 471550.10427900002, "ORIG_FID": 9 }, "geometry": { "type": "Point", "coordinates": [ 67.827181479000046, 33.289180601000055 ] } },
{ "type": "Feature", "properties": { "GID_0": "AFG", "NAME_0": "Afghanistan", "GID_1": "AFG.10_1", "NAME_1": "Ghor", "HASC_1": "AF.GR", "CARBON": 0.029052988632699998, "POPULATION": 697776.98128599999, "PERCAPCARB": 4.1636496204300002e-08, "UNITTYPE": "STATE", "POPDENSITY": 195642.754231, "ORIG_FID": 10 }, "geometry": { "type": "Point", "coordinates": [ 64.886520190000056, 34.182880978000071 ] } },
{ "type": "Feature", "properties": { "GID_0": "AFG", "NAME_0": "Afghanistan", "GID_1": "AFG.11_1", "NAME_1": "Hilmand", "HASC_1": "AF.HM", "CARBON": 0.20380601221799999, "POPULATION": 925671.95738299994, "PERCAPCARB": 2.20170882992e-07, "UNITTYPE": "STATE", "POPDENSITY": 167234.494022, "ORIG_FID": 11 }, "geometry": { "type": "Point", "coordinates": [ 64.015182290000041, 31.139855542000078 ] } },
{ "type": "Feature", "properties": { "GID_0": "AFG", "NAME_0": "Afghanistan", "GID_1": "AFG.12_1", "NAME_1": "Hirat", "HASC_1": "AF.HR", "CARBON": 0.37415951766700001, "POPULATION": 2025055.38427, "PERCAPCARB": 1.84765078809e-07, "UNITTYPE": "STATE", "POPDENSITY": 378255.05686399998, "ORIG_FID": 12 }, "geometry": { "type": "Point", "coordinates": [ 62.121516189000033, 34.190749271000072 ] } },
{ "type": "Feature", "properties": { "GID_0": "AFG", "NAME_0": "Afghanistan", "GID_1": "AFG.13_1", "NAME_1": "Jawzjan", "HASC_1": "AF.JW", "CARBON": 0.247740987527, "POPULATION": 540538.26134700002, "PERCAPCARB": 4.5832275944699998e-07, "UNITTYPE": "STATE", "POPDENSITY": 453469.99490300001, "ORIG_FID": 13 }, "geometry": { "type": "Point", "coordinates": [ 65.866230810000047, 36.818436950000034 ] } },
{ "type": "Feature", "properties": { "GID_0": "AFG", "NAME_0": "Afghanistan", "GID_1": "AFG.14_1", "NAME_1": "Kabul", "HASC_1": "AF.KB", "CARBON": 1.3999382977499999, "POPULATION": 4213406.54275, "PERCAPCARB": 3.3225806329e-07, "UNITTYPE": "STATE", "POPDENSITY": 9607962.6440699995, "ORIG_FID": 14 }, "geometry": { "type": "Point", "coordinates": [ 69.107688907000068, 34.597660639000026 ] } },
{ "type": "Feature", "properties": { "GID_0": "AFG", "NAME_0": "Afghanistan", "GID_1": "AFG.15_1", "NAME_1": "Kandahar", "HASC_1": "AF.KD", "CARBON": 0.58503923481700004, "POPULATION": 1239410.73581, "PERCAPCARB": 4.7203014941900002e-07, "UNITTYPE": "STATE", "POPDENSITY": 245297.87517300001, "ORIG_FID": 15 }, "geometry": { "type": "Point", "coordinates": [ 65.699155072000053, 30.97302085900003 ] } },
{ "type": "Feature", "properties": { "GID_0": "AFG", "NAME_0": "Afghanistan", "GID_1": "AFG.16_1", "NAME_1": "Kapisa", "HASC_1": "AF.KP", "CARBON": 0.0049731905787700004, "POPULATION": 442891.66386299999, "PERCAPCARB": 1.1228909876900001e-08, "UNITTYPE": "STATE", "POPDENSITY": 2353002.3366700001, "ORIG_FID": 16 }, "geometry": { "type": "Point", "coordinates": [ 69.753692630000046, 34.922937925000042 ] } },
{ "type": "Feature", "properties": { "GID_0": "AFG", "NAME_0": "Afghanistan", "GID_1": "AFG.17_1", "NAME_1": "Khost", "HASC_1": "AF.KT", "CARBON": 0.00997593537141, "POPULATION": 621193.506268, "PERCAPCARB": 1.60593040184e-08, "UNITTYPE": "STATE", "POPDENSITY": 1593944.65185, "ORIG_FID": 17 }, "geometry": { "type": "Point", "coordinates": [ 69.871975531000032, 33.372440907000055 ] } },
{ "type": "Feature", "properties": { "GID_0": "AFG", "NAME_0": "Afghanistan", "GID_1": "AFG.18_1", "NAME_1": "Kunar", "HASC_1": "AF.KR", "CARBON": 0.0032140375793700002, "POPULATION": 464041.71250099997, "PERCAPCARB": 6.9261824805599997e-09, "UNITTYPE": "STATE", "POPDENSITY": 961417.28553500003, "ORIG_FID": 18 }, "geometry": { "type": "Point", "coordinates": [ 70.869184492000045, 34.810649230000024 ] } },
{ "type": "Feature", "properties": { "GID_0": "AFG", "NAME_0": "Afghanistan", "GID_1": "AFG.19_1", "NAME_1": "Kunduz", "HASC_1": "AF.KZ", "CARBON": 0.075694808808100006, "POPULATION": 924653.67704900005, "PERCAPCARB": 8.1862875460199995e-08, "UNITTYPE": "STATE", "POPDENSITY": 1138072.5541699999, "ORIG_FID": 19 }, "geometry": { "type": "Point", "coordinates": [ 68.751361538000083, 36.83955559900005 ] } },
{ "type": "Feature", "properties": { "GID_0": "AFG", "NAME_0": "Afghanistan", "GID_1": "AFG.20_1", "NAME_1": "Laghman", "HASC_1": "AF.LA", "CARBON": 0.0102885583627, "POPULATION": 459702.77755300002, "PERCAPCARB": 2.2380892318e-08, "UNITTYPE": "STATE", "POPDENSITY": 1215274.19429, "ORIG_FID": 20 }, "geometry": { "type": "Point", "coordinates": [ 70.143189864000078, 34.756152799000063 ] } },
{ "type": "Feature", "properties": { "GID_0": "AFG", "NAME_0": "Afghanistan", "GID_1": "AFG.21_1", "NAME_1": "Logar", "HASC_1": "AF.LW", "CARBON": 0.0156296200082, "POPULATION": 391826.64599400002, "PERCAPCARB": 3.9889119762399998e-08, "UNITTYPE": "STATE", "POPDENSITY": 1037766.07147, "ORIG_FID": 21 }, "geometry": { "type": "Point", "coordinates": [ 69.077813878000029, 33.993349325000054 ] } },
{ "type": "Feature", "properties": { "GID_0": "AFG", "NAME_0": "Afghanistan", "GID_1": "AFG.22_1", "NAME_1": "Nangarhar", "HASC_1": "AF.NG", "CARBON": 0.067705068995499995, "POPULATION": 1563547.2605099999, "PERCAPCARB": 4.3302220985300002e-08, "UNITTYPE": "STATE", "POPDENSITY": 2138545.0156899998, "ORIG_FID": 22 }, "geometry": { "type": "Point", "coordinates": [ 70.468251063000082, 34.274923820000026 ] } },
{ "type": "Feature", "properties": { "GID_0": "AFG", "NAME_0": "Afghanistan", "GID_1": "AFG.23_1", "NAME_1": "Nimroz", "HASC_1": "AF.NM", "CARBON": 0.12654482090399999, "POPULATION": 165429.69391, "PERCAPCARB": 7.6494623131399995e-07, "UNITTYPE": "STATE", "POPDENSITY": 42838.820699900003, "ORIG_FID": 23 }, "geometry": { "type": "Point", "coordinates": [ 62.313492215000053, 30.805174644000033 ] } },
{ "type": "Feature", "properties": { "GID_0": "AFG", "NAME_0": "Afghanistan", "GID_1": "AFG.24_1", "NAME_1": "Nuristan", "HASC_1": "AF.NR", "CARBON": 0.0086187591782600007, "POPULATION": 171369.382572, "PERCAPCARB": 5.0293459945399998e-08, "UNITTYPE": "STATE", "POPDENSITY": 187196.302256, "ORIG_FID": 24 }, "geometry": { "type": "Point", "coordinates": [ 70.782344815000044, 35.27465273200005 ] } },
{ "type": "Feature", "properties": { "GID_0": "AFG", "NAME_0": "Afghanistan", "GID_1": "AFG.25_1", "NAME_1": "Paktika", "HASC_1": "AF.PK", "CARBON": 0.0305055472775, "POPULATION": 439022.670125, "PERCAPCARB": 6.9485129933800006e-08, "UNITTYPE": "STATE", "POPDENSITY": 240078.39858499999, "ORIG_FID": 25 }, "geometry": { "type": "Point", "coordinates": [ 68.752984626000057, 32.477804737000042 ] } },
{ "type": "Feature", "properties": { "GID_0": "AFG", "NAME_0": "Afghanistan", "GID_1": "AFG.26_1", "NAME_1": "Paktya", "HASC_1": "AF.PT", "CARBON": 0.022300509984499998, "POPULATION": 622468.865276, "PERCAPCARB": 3.5825904279700002e-08, "UNITTYPE": "STATE", "POPDENSITY": 995752.72908700001, "ORIG_FID": 26 }, "geometry": { "type": "Point", "coordinates": [ 69.424308217000032, 33.680511834000072 ] } },
{ "type": "Feature", "properties": { "GID_0": "AFG", "NAME_0": "Afghanistan", "GID_1": "AFG.27_1", "NAME_1": "Panjshir", "HASC_1": "AF.PJ", "CARBON": 0.0046223915267100003, "POPULATION": 142741.41136500001, "PERCAPCARB": 3.2382974796900003e-08, "UNITTYPE": "STATE", "POPDENSITY": 395467.28143700003, "ORIG_FID": 27 }, "geometry": { "type": "Point", "coordinates": [ 69.779201510000064, 35.359154388000036 ] } },
{ "type": "Feature", "properties": { "GID_0": "AFG", "NAME_0": "Afghanistan", "GID_1": "AFG.28_1", "NAME_1": "Parwan", "HASC_1": "AF.PV", "CARBON": 0.161082475713, "POPULATION": 671303.66353799996, "PERCAPCARB": 2.3995470971200002e-07, "UNITTYPE": "STATE", "POPDENSITY": 1154861.2070299999, "ORIG_FID": 28 }, "geometry": { "type": "Point", "coordinates": [ 68.532545087000074, 34.893869805000065 ] } },
{ "type": "Feature", "properties": { "GID_0": "AFG", "NAME_0": "Afghanistan", "GID_1": "AFG.29_1", "NAME_1": "Samangan", "HASC_1": "AF.SM", "CARBON": 0.0297651566895, "POPULATION": 374189.27973299997, "PERCAPCARB": 7.9545722717399995e-08, "UNITTYPE": "STATE", "POPDENSITY": 332567.02009499999, "ORIG_FID": 29 }, "geometry": { "type": "Point", "coordinates": [ 67.711025240000083, 35.861498632000064 ] } },
{ "type": "Feature", "properties": { "GID_0": "AFG", "NAME_0": "Afghanistan", "GID_1": "AFG.30_1", "NAME_1": "Sari Pul", "HASC_1": "AF.SP", "CARBON": 0.0135095068317, "POPULATION": 588800.38697400002, "PERCAPCARB": 2.29441201646e-08, "UNITTYPE": "STATE", "POPDENSITY": 369444.502798, "ORIG_FID": 30 }, "geometry": { "type": "Point", "coordinates": [ 66.16863221300008, 35.71464549500007 ] } },
{ "type": "Feature", "properties": { "GID_0": "AFG", "NAME_0": "Afghanistan", "GID_1": "AFG.31_1", "NAME_1": "Takhar", "HASC_1": "AF.TK", "CARBON": 0.033069424974300002, "POPULATION": 1026062.09986, "PERCAPCARB": 3.2229457631e-08, "UNITTYPE": "STATE", "POPDENSITY": 824685.95745700004, "ORIG_FID": 31 }, "geometry": { "type": "Point", "coordinates": [ 69.778986252000038, 36.70417614400003 ] } },
{ "type": "Feature", "properties": { "GID_0": "AFG", "NAME_0": "Afghanistan", "GID_1": "AFG.32_1", "NAME_1": "Uruzgan", "HASC_1": "AF.OZ", "CARBON": 0.011457623161399999, "POPULATION": 384706.74336099997, "PERCAPCARB": 2.9782745842600001e-08, "UNITTYPE": "STATE", "POPDENSITY": 310572.317194, "ORIG_FID": 32 }, "geometry": { "type": "Point", "coordinates": [ 65.664375302000053, 32.672381617000042 ] } },
{ "type": "Feature", "properties": { "GID_0": "AFG", "NAME_0": "Afghanistan", "GID_1": "AFG.33_1", "NAME_1": "Wardak", "HASC_1": "AF.VR", "CARBON": 0.0073133112737200001, "POPULATION": 532498.65597399999, "PERCAPCARB": 1.37339525493e-08, "UNITTYPE": "STATE", "POPDENSITY": 609271.70673800004, "ORIG_FID": 33 }, "geometry": { "type": "Point", "coordinates": [ 68.284170471000039, 34.317152898000074 ] } },
{ "type": "Feature", "properties": { "GID_0": "AFG", "NAME_0": "Afghanistan", "GID_1": "AFG.34_1", "NAME_1": "Zabul", "HASC_1": "AF.ZB", "CARBON": 0.042605680114899999, "POPULATION": 326154.76673799998, "PERCAPCARB": 1.30630254284e-07, "UNITTYPE": "STATE", "POPDENSITY": 196744.41992, "ORIG_FID": 34 }, "geometry": { "type": "Point", "coordinates": [ 67.149127965000048, 32.418201666000073 ] } },
{ "type": "Feature", "properties": { "GID_0": "AGO", "NAME_0": "Angola", "GID_1": "AGO.1_1", "NAME_1": "Bengo", "HASC_1": "AO.BO", "CARBON": 1.1149509337700001, "POPULATION": 442907.73160699999, "PERCAPCARB": 2.5173435779100001e-06, "UNITTYPE": "STATE", "POPDENSITY": 156746.35574900001, "ORIG_FID": 35 }, "geometry": { "type": "Point", "coordinates": [ 13.881420417000072, -8.977751489999946 ] } },
{ "type": "Feature", "properties": { "GID_0": "AGO", "NAME_0": "Angola", "GID_1": "AGO.2_1", "NAME_1": "Benguela", "HASC_1": "AO.BG", "CARBON": 1.2078485891599999, "POPULATION": 2025402.47046, "PERCAPCARB": 5.9634991404200004e-07, "UNITTYPE": "STATE", "POPDENSITY": 615406.25970499997, "ORIG_FID": 36 }, "geometry": { "type": "Point", "coordinates": [ 13.989713248000044, -12.933510844999944 ] } },
{ "type": "Feature", "properties": { "GID_0": "AGO", "NAME_0": "Angola", "GID_1": "AGO.3_1", "NAME_1": "Bié", "HASC_1": "AO.BI", "CARBON": 0.44975269742700003, "POPULATION": 1290764.0084899999, "PERCAPCARB": 3.4843913718400002e-07, "UNITTYPE": "STATE", "POPDENSITY": 215545.766176, "ORIG_FID": 37 }, "geometry": { "type": "Point", "coordinates": [ 17.362581152000075, -12.324933118999979 ] } },
{ "type": "Feature", "properties": { "GID_0": "AGO", "NAME_0": "Angola", "GID_1": "AGO.4_1", "NAME_1": "Cabinda", "HASC_1": "AO.CB", "CARBON": 0.91066733084200002, "POPULATION": 752425.27662699996, "PERCAPCARB": 1.2103093278899999e-06, "UNITTYPE": "STATE", "POPDENSITY": 1308717.4942600001, "ORIG_FID": 38 }, "geometry": { "type": "Point", "coordinates": [ 12.559769155000026, -4.81320885599996 ] } },
{ "type": "Feature", "properties": { "GID_0": "AGO", "NAME_0": "Angola", "GID_1": "AGO.5_1", "NAME_1": "Cuando Cubango", "HASC_1": "AO.CC", "CARBON": 2.4961859244000002, "POPULATION": 498248.86770200002, "PERCAPCARB": 5.0099179069000001e-06, "UNITTYPE": "STATE", "POPDENSITY": 29560.996819700002, "ORIG_FID": 39 }, "geometry": { "type": "Point", "coordinates": [ 19.516422569000042, -16.118537577999973 ] } },
{ "type": "Feature", "properties": { "GID_0": "AGO", "NAME_0": "Angola", "GID_1": "AGO.6_1", "NAME_1": "Cuanza Norte", "HASC_1": "AO.CN", "CARBON": 0.299074264782, "POPULATION": 455419.74405799998, "PERCAPCARB": 6.5670026098700005e-07, "UNITTYPE": "STATE", "POPDENSITY": 232542.39367600001, "ORIG_FID": 40 }, "geometry": { "type": "Point", "coordinates": [ 14.945960636000052, -8.898622272999944 ] } },
{ "type": "Feature", "properties": { "GID_0": "AGO", "NAME_0": "Angola", "GID_1": "AGO.7_1", "NAME_1": "Cuanza Sul", "HASC_1": "AO.CS", "CARBON": 0.747314974503, "POPULATION": 1809130.7365600001, "PERCAPCARB": 4.1307958535099999e-07, "UNITTYPE": "STATE", "POPDENSITY": 395994.25565800001, "ORIG_FID": 41 }, "geometry": { "type": "Point", "coordinates": [ 15.044849409000051, -10.825980346999927 ] } },
{ "type": "Feature", "properties": { "GID_0": "AGO", "NAME_0": "Angola", "GID_1": "AGO.8_1", "NAME_1": "Cunene", "HASC_1": "AO.CU", "CARBON": 0.89222437296400003, "POPULATION": 1009143.2949, "PERCAPCARB": 8.8414041640299996e-07, "UNITTYPE": "STATE", "POPDENSITY": 154316.47943000001, "ORIG_FID": 42 }, "geometry": { "type": "Point", "coordinates": [ 16.349090812000043, -16.325147959999981 ] } },
{ "type": "Feature", "properties": { "GID_0": "AGO", "NAME_0": "Angola", "GID_1": "AGO.9_1", "NAME_1": "Huambo", "HASC_1": "AO.HM", "CARBON": 0.80922159104799996, "POPULATION": 1857858.3674900001, "PERCAPCARB": 4.3556688992500002e-07, "UNITTYPE": "STATE", "POPDENSITY": 674051.812469, "ORIG_FID": 43 }, "geometry": { "type": "Point", "coordinates": [ 15.745633840000039, -12.569171646999962 ] } },
{ "type": "Feature", "properties": { "GID_0": "AGO", "NAME_0": "Angola", "GID_1": "AGO.10_1", "NAME_1": "Huíla", "HASC_1": "AO.HL", "CARBON": 1.1512184560200001, "POPULATION": 2476782.75251, "PERCAPCARB": 4.6480396992699998e-07, "UNITTYPE": "STATE", "POPDENSITY": 375002.65925600001, "ORIG_FID": 44 }, "geometry": { "type": "Point", "coordinates": [ 14.950096451000036, -14.742880316999958 ] } },
{ "type": "Feature", "properties": { "GID_0": "AGO", "NAME_0": "Angola", "GID_1": "AGO.11_1", "NAME_1": "Luanda", "HASC_1": "AO.LU", "CARBON": 8.6827721260500006, "POPULATION": 7447931.3687199997, "PERCAPCARB": 1.1657964737100001e-06, "UNITTYPE": "STATE", "POPDENSITY": 37025134.367, "ORIG_FID": 45 }, "geometry": { "type": "Point", "coordinates": [ 13.312793848000069, -8.980432238999981 ] } },
{ "type": "Feature", "properties": { "GID_0": "AGO", "NAME_0": "Angola", "GID_1": "AGO.12_1", "NAME_1": "Lunda Norte", "HASC_1": "AO.LN", "CARBON": 1.4640474458, "POPULATION": 814580.524446, "PERCAPCARB": 1.79730229469e-06, "UNITTYPE": "STATE", "POPDENSITY": 91969.726434800003, "ORIG_FID": 46 }, "geometry": { "type": "Point", "coordinates": [ 19.492904132000035, -8.652086939999947 ] } },
{ "type": "Feature", "properties": { "GID_0": "AGO", "NAME_0": "Angola", "GID_1": "AGO.13_1", "NAME_1": "Lunda Sul", "HASC_1": "AO.LS", "CARBON": 1.3229374462700001, "POPULATION": 515853.70072099997, "PERCAPCARB": 2.5645593787899999e-06, "UNITTYPE": "STATE", "POPDENSITY": 80250.637017899993, "ORIG_FID": 47 }, "geometry": { "type": "Point", "coordinates": [ 20.655399482000064, -10.176150394999979 ] } },
{ "type": "Feature", "properties": { "GID_0": "AGO", "NAME_0": "Angola", "GID_1": "AGO.14_1", "NAME_1": "Malanje", "HASC_1": "AO.ML", "CARBON": 0.61437089839500003, "POPULATION": 964756.73725899996, "PERCAPCARB": 6.3681431252900005e-07, "UNITTYPE": "STATE", "POPDENSITY": 142581.43589, "ORIG_FID": 48 }, "geometry": { "type": "Point", "coordinates": [ 16.958205520000035, -9.49005178799996 ] } },
{ "type": "Feature", "properties": { "GID_0": "AGO", "NAME_0": "Angola", "GID_1": "AGO.15_1", "NAME_1": "Moxico", "HASC_1": "AO.MX", "CARBON": 2.93179777844, "POPULATION": 791535.06592199998, "PERCAPCARB": 3.7039392247600001e-06, "UNITTYPE": "STATE", "POPDENSITY": 47516.404240900003, "ORIG_FID": 49 }, "geometry": { "type": "Point", "coordinates": [ 21.040074680000032, -12.879725572999973 ] } },
{ "type": "Feature", "properties": { "GID_0": "AGO", "NAME_0": "Angola", "GID_1": "AGO.16_1", "NAME_1": "Namibe", "HASC_1": "AO.NA", "CARBON": 0.468645244623, "POPULATION": 497669.14354199998, "PERCAPCARB": 9.4168033261599998e-07, "UNITTYPE": "STATE", "POPDENSITY": 102019.219494, "ORIG_FID": 50 }, "geometry": { "type": "Point", "coordinates": [ 12.728702584000075, -15.491461147999928 ] } },
{ "type": "Feature", "properties": { "GID_0": "AGO", "NAME_0": "Angola", "GID_1": "AGO.17_1", "NAME_1": "Uíge", "HASC_1": "AO.UI", "CARBON": 0.40583152739, "POPULATION": 1324323.6915200001, "PERCAPCARB": 3.0644436098800001e-07, "UNITTYPE": "STATE", "POPDENSITY": 260896.227682, "ORIG_FID": 51 }, "geometry": { "type": "Point", "coordinates": [ 15.477390006000064, -7.024051165999936 ] } },
{ "type": "Feature", "properties": { "GID_0": "AGO", "NAME_0": "Angola", "GID_1": "AGO.18_1", "NAME_1": "Zaire", "HASC_1": "AO.ZA", "CARBON": 0.69817414585500004, "POPULATION": 600130.89858799998, "PERCAPCARB": 1.16336977066e-06, "UNITTYPE": "STATE", "POPDENSITY": 200630.264868, "ORIG_FID": 52 }, "geometry": { "type": "Point", "coordinates": [ 13.562896125000066, -6.608920272999967 ] } },
{ "type": "Feature", "properties": { "GID_0": "ALA", "NAME_0": "Åland", "GID_1": "ALA.1_1", "NAME_1": "Brändö", "HASC_1": "AX.BR", "CARBON": 0.0, "POPULATION": 276.49309481799997, "PERCAPCARB": 0.0, "UNITTYPE": "STATE", "POPDENSITY": 22094.6993573, "ORIG_FID": 53 }, "geometry": { "type": "Point", "coordinates": [ 21.089714050000055, 60.465061322000054 ] } },
{ "type": "Feature", "properties": { "GID_0": "ALA", "NAME_0": "Åland", "GID_1": "ALA.2_1", "NAME_1": "Eckerö", "HASC_1": "AX.EC", "CARBON": 0.0, "POPULATION": 770.67183968799998, "PERCAPCARB": 0.0, "UNITTYPE": "STATE", "POPDENSITY": 45904.204823300002, "ORIG_FID": 54 }, "geometry": { "type": "Point", "coordinates": [ 19.645051956000032, 60.209505082000078 ] } },
{ "type": "Feature", "properties": { "GID_0": "ALA", "NAME_0": "Åland", "GID_1": "ALA.3_1", "NAME_1": "Finström", "HASC_1": "AX.FN", "CARBON": 0.045902635902199999, "POPULATION": 2499.6059764699999, "PERCAPCARB": 1.8363948692e-05, "UNITTYPE": "STATE", "POPDENSITY": 95714.390276499995, "ORIG_FID": 55 }, "geometry": { "type": "Point", "coordinates": [ 19.910025939000036, 60.265507767000031 ] } },
{ "type": "Feature", "properties": { "GID_0": "ALA", "NAME_0": "Åland", "GID_1": "ALA.4_1", "NAME_1": "Föglö", "HASC_1": "AX.FG", "CARBON": 0.0, "POPULATION": 393.83510617600001, "PERCAPCARB": 0.0, "UNITTYPE": "STATE", "POPDENSITY": 17439.945064, "ORIG_FID": 56 }, "geometry": { "type": "Point", "coordinates": [ 20.371004104000065, 59.995904923000069 ] } },
{ "type": "Feature", "properties": { "GID_0": "ALA", "NAME_0": "Åland", "GID_1": "ALA.5_1", "NAME_1": "Geta", "HASC_1": "AX.GT", "CARBON": 0.0083929002285000002, "POPULATION": 413.80335833499998, "PERCAPCARB": 2.02823395689e-05, "UNITTYPE": "STATE", "POPDENSITY": 31036.5380859, "ORIG_FID": 57 }, "geometry": { "type": "Point", "coordinates": [ 19.862321383000051, 60.374718023000071 ] } },
{ "type": "Feature", "properties": { "GID_0": "ALA", "NAME_0": "Åland", "GID_1": "ALA.6_1", "NAME_1": "Hammarland", "HASC_1": "AX.HM", "CARBON": 0.037149317562600002, "POPULATION": 1407.80883681, "PERCAPCARB": 2.6388041182300001e-05, "UNITTYPE": "STATE", "POPDENSITY": 64832.433742399997, "ORIG_FID": 58 }, "geometry": { "type": "Point", "coordinates": [ 19.743909844000029, 60.224421732000053 ] } },
{ "type": "Feature", "properties": { "GID_0": "ALA", "NAME_0": "Åland", "GID_1": "ALA.7_1", "NAME_1": "Jomala", "HASC_1": "AX.JM", "CARBON": 0.253105133772, "POPULATION": 4395.7522074199996, "PERCAPCARB": 5.7579481697000002e-05, "UNITTYPE": "STATE", "POPDENSITY": 199161.279534, "ORIG_FID": 59 }, "geometry": { "type": "Point", "coordinates": [ 19.905026789000033, 60.142870109000057 ] } },
{ "type": "Feature", "properties": { "GID_0": "ALA", "NAME_0": "Åland", "GID_1": "ALA.9_1", "NAME_1": "Kumlinge", "HASC_1": "AX.KM", "CARBON": 0.0, "POPULATION": 224.96072154699999, "PERCAPCARB": 0.0, "UNITTYPE": "STATE", "POPDENSITY": 18282.4658227, "ORIG_FID": 60 }, "geometry": { "type": "Point", "coordinates": [ 20.794563625000023, 60.258062576000043 ] } },
{ "type": "Feature", "properties": { "GID_0": "ALA", "NAME_0": "Åland", "GID_1": "ALA.10_1", "NAME_1": "Lemland", "HASC_1": "AX.LE", "CARBON": 0.0, "POPULATION": 1544.49622924, "PERCAPCARB": 0.0, "UNITTYPE": "STATE", "POPDENSITY": 81889.557670499998, "ORIG_FID": 61 }, "geometry": { "type": "Point", "coordinates": [ 20.169531345000053, 60.049174071000039 ] } },
{ "type": "Feature", "properties": { "GID_0": "ALA", "NAME_0": "Åland", "GID_1": "ALA.12_1", "NAME_1": "Mariehamn", "HASC_1": "AX.MH", "CARBON": 0.0, "POPULATION": 7776.3095931999997, "PERCAPCARB": 0.0, "UNITTYPE": "STATE", "POPDENSITY": 3571786.9703700002, "ORIG_FID": 62 }, "geometry": { "type": "Point", "coordinates": [ 19.953146934000074, 60.077073574000053 ] } },
{ "type": "Feature", "properties": { "GID_0": "ALA", "NAME_0": "Åland", "GID_1": "ALA.13_1", "NAME_1": "Saltvik", "HASC_1": "AX.SV", "CARBON": 0.035743657499599998, "POPULATION": 1652.83922493, "PERCAPCARB": 2.1625610622300001e-05, "UNITTYPE": "STATE", "POPDENSITY": 66809.269016899998, "ORIG_FID": 63 }, "geometry": { "type": "Point", "coordinates": [ 20.063824112000077, 60.308055839000076 ] } },
{ "type": "Feature", "properties": { "GID_0": "ALA", "NAME_0": "Åland", "GID_1": "ALA.15_1", "NAME_1": "Sund", "HASC_1": "AX.SD", "CARBON": 0.016684751026300002, "POPULATION": 896.05369865900002, "PERCAPCARB": 1.8620257972599999e-05, "UNITTYPE": "STATE", "POPDENSITY": 52086.869579300001, "ORIG_FID": 64 }, "geometry": { "type": "Point", "coordinates": [ 20.160311453000077, 60.236878646000036 ] } },
{ "type": "Feature", "properties": { "GID_0": "ALA", "NAME_0": "Åland", "GID_1": "ALA.16_1", "NAME_1": "Vårdö", "HASC_1": "AX.VR", "CARBON": 0.0, "POPULATION": 277.32717324100003, "PERCAPCARB": 0.0, "UNITTYPE": "STATE", "POPDENSITY": 22184.895555899999, "ORIG_FID": 65 }, "geometry": { "type": "Point", "coordinates": [ 20.376335647000076, 60.249427610000055 ] } },
{ "type": "Feature", "properties": { "GID_0": "ALB", "NAME_0": "Albania", "GID_1": "ALB.1_1", "NAME_1": "Berat", "HASC_1": "AL.BE", "CARBON": 0.31791315166599998, "POPULATION": 125909.08713299999, "PERCAPCARB": 2.5249420745099999e-06, "UNITTYPE": "STATE", "POPDENSITY": 651445.14049599995, "ORIG_FID": 66 }, "geometry": { "type": "Point", "coordinates": [ 20.090774687000078, 40.628500434000046 ] } },
{ "type": "Feature", "properties": { "GID_0": "ALB", "NAME_0": "Albania", "GID_1": "ALB.2_1", "NAME_1": "Dibër", "HASC_1": "AL.DB", "CARBON": 0.242464503788, "POPULATION": 122207.980096, "PERCAPCARB": 1.98403167778e-06, "UNITTYPE": "STATE", "POPDENSITY": 432931.17198500002, "ORIG_FID": 67 }, "geometry": { "type": "Point", "coordinates": [ 20.249533581000037, 41.58910535900003 ] } },
{ "type": "Feature", "properties": { "GID_0": "ALB", "NAME_0": "Albania", "GID_1": "ALB.3_1", "NAME_1": "Durrës", "HASC_1": "AL.DU", "CARBON": 1.06845336594, "POPULATION": 263438.614543, "PERCAPCARB": 4.0557963295899999e-06, "UNITTYPE": "STATE", "POPDENSITY": 3135606.33605, "ORIG_FID": 68 }, "geometry": { "type": "Point", "coordinates": [ 19.651765820000037, 41.518364837000036 ] } },
{ "type": "Feature", "properties": { "GID_0": "ALB", "NAME_0": "Albania", "GID_1": "ALB.4_1", "NAME_1": "Elbasan", "HASC_1": "AL.EB", "CARBON": -0.90645964054799999, "POPULATION": 272781.08371799998, "PERCAPCARB": -3.32302969177e-06, "UNITTYPE": "STATE", "POPDENSITY": 804211.72370199999, "ORIG_FID": 69 }, "geometry": { "type": "Point", "coordinates": [ 20.186454488000038, 41.040027661000067 ] } },
{ "type": "Feature", "properties": { "GID_0": "ALB", "NAME_0": "Albania", "GID_1": "ALB.5_1", "NAME_1": "Fier", "HASC_1": "AL.FI", "CARBON": -1.3751038101, "POPULATION": 286589.963216, "PERCAPCARB": -4.79815760006e-06, "UNITTYPE": "STATE", "POPDENSITY": 1432257.93707, "ORIG_FID": 70 }, "geometry": { "type": "Point", "coordinates": [ 19.620527709000044, 40.774633406000078 ] } },
{ "type": "Feature", "properties": { "GID_0": "ALB", "NAME_0": "Albania", "GID_1": "ALB.6_1", "NAME_1": "Gjirokastër", "HASC_1": "AL.GK", "CARBON": 0.31433692073800001, "POPULATION": 63118.766029699997, "PERCAPCARB": 4.9800865972200002e-06, "UNITTYPE": "STATE", "POPDENSITY": 205897.568707, "ORIG_FID": 71 }, "geometry": { "type": "Point", "coordinates": [ 20.169264395000027, 40.213829557000054 ] } },
{ "type": "Feature", "properties": { "GID_0": "ALB", "NAME_0": "Albania", "GID_1": "ALB.7_1", "NAME_1": "Korçë", "HASC_1": "AL.KE", "CARBON": -1.7184066786300001, "POPULATION": 205899.50862199999, "PERCAPCARB": -8.3458512850800008e-06, "UNITTYPE": "STATE", "POPDENSITY": 519643.02104299999, "ORIG_FID": 72 }, "geometry": { "type": "Point", "coordinates": [ 20.666003937000028, 40.628830236000056 ] } },
{ "type": "Feature", "properties": { "GID_0": "ALB", "NAME_0": "Albania", "GID_1": "ALB.8_1", "NAME_1": "Kukës", "HASC_1": "AL.KK", "CARBON": 0.21547360718299999, "POPULATION": 78787.930914800003, "PERCAPCARB": 2.7348555125200001e-06, "UNITTYPE": "STATE", "POPDENSITY": 300067.51731299999, "ORIG_FID": 73 }, "geometry": { "type": "Point", "coordinates": [ 20.419467452000049, 42.066695984000035 ] } },
{ "type": "Feature", "properties": { "GID_0": "ALB", "NAME_0": "Albania", "GID_1": "ALB.9_1", "NAME_1": "Lezhë", "HASC_1": "AL.LZ", "CARBON": 0.388748495847, "POPULATION": 130669.728504, "PERCAPCARB": 2.97504632707e-06, "UNITTYPE": "STATE", "POPDENSITY": 724426.82277500001, "ORIG_FID": 74 }, "geometry": { "type": "Point", "coordinates": [ 19.84569470100007, 41.801451516000043 ] } },
{ "type": "Feature", "properties": { "GID_0": "ALB", "NAME_0": "Albania", "GID_1": "ALB.10_1", "NAME_1": "Shkodër", "HASC_1": "AL.SD", "CARBON": 0.42383814503, "POPULATION": 200177.55310300001, "PERCAPCARB": 2.1173110494100001e-06, "UNITTYPE": "STATE", "POPDENSITY": 524072.192522, "ORIG_FID": 75 }, "geometry": { "type": "Point", "coordinates": [ 19.719451020000065, 42.176819898000076 ] } },
{ "type": "Feature", "properties": { "GID_0": "ALB", "NAME_0": "Albania", "GID_1": "ALB.11_1", "NAME_1": "Tiranë", "HASC_1": "AL.TI", "CARBON": 0.77908429699500004, "POPULATION": 840302.21788600006, "PERCAPCARB": 9.2714773376999998e-07, "UNITTYPE": "STATE", "POPDENSITY": 4777249.9565099999, "ORIG_FID": 76 }, "geometry": { "type": "Point", "coordinates": [ 19.793936271000064, 41.268582845000026 ] } },
{ "type": "Feature", "properties": { "GID_0": "ALB", "NAME_0": "Albania", "GID_1": "ALB.12_1", "NAME_1": "Vlorë", "HASC_1": "AL.VR", "CARBON": 0.47829245730800002, "POPULATION": 169678.227357, "PERCAPCARB": 2.81882045067e-06, "UNITTYPE": "STATE", "POPDENSITY": 606601.15060399997, "ORIG_FID": 77 }, "geometry": { "type": "Point", "coordinates": [ 19.793592439000065, 40.162418161000062 ] } },
{ "type": "Feature", "properties": { "GID_0": "AND", "NAME_0": "Andorra", "GID_1": "AND.2_1", "NAME_1": "Canillo", "HASC_1": "AD.CA", "CARBON": 0.20011778175799999, "POPULATION": 9148.0270233200008, "PERCAPCARB": 2.1875512747e-05, "UNITTYPE": "STATE", "POPDENSITY": 746130.33098099998, "ORIG_FID": 78 }, "geometry": { "type": "Point", "coordinates": [ 1.661884144000055, 42.580017135000048 ] } },
{ "type": "Feature", "properties": { "GID_0": "AND", "NAME_0": "Andorra", "GID_1": "AND.5_1", "NAME_1": "La Massana", "HASC_1": "AD.MA", "CARBON": 0.25153258442900001, "POPULATION": 12687.2038651, "PERCAPCARB": 1.9825691074599999e-05, "UNITTYPE": "STATE", "POPDENSITY": 1706784.3924, "ORIG_FID": 79 }, "geometry": { "type": "Point", "coordinates": [ 1.482939948000023, 42.55345055500004 ] } },
{ "type": "Feature", "properties": { "GID_0": "AND", "NAME_0": "Andorra", "GID_1": "AND.6_1", "NAME_1": "Ordino", "HASC_1": "AD.OR", "CARBON": 0.61357766389799995, "POPULATION": 5933.3299083700003, "PERCAPCARB": 0.000103412025519, "UNITTYPE": "STATE", "POPDENSITY": 680004.84999500006, "ORIG_FID": 80 }, "geometry": { "type": "Point", "coordinates": [ 1.538824870000042, 42.605940691000058 ] } },
{ "type": "Feature", "properties": { "GID_0": "AND", "NAME_0": "Andorra", "GID_1": "AND.7_1", "NAME_1": "Sant Julià de Lòria", "HASC_1": "AD.JL", "CARBON": 0.22438181191699999, "POPULATION": 11171.630958600001, "PERCAPCARB": 2.00849645633e-05, "UNITTYPE": "STATE", "POPDENSITY": 1562133.14442, "ORIG_FID": 81 }, "geometry": { "type": "Point", "coordinates": [ 1.493756483000027, 42.465715826000064 ] } },
{ "type": "Feature", "properties": { "GID_0": "ARE", "NAME_0": "United Arab Emirates", "GID_1": "ARE.1_1", "NAME_1": "Abu Dhabi", "HASC_1": "AE.AZ", "CARBON": 126.18924789499999, "POPULATION": 2049968.1606699999, "PERCAPCARB": 6.1556686740999996e-05, "UNITTYPE": "STATE", "POPDENSITY": 388545.18930600001, "ORIG_FID": 82 }, "geometry": { "type": "Point", "coordinates": [ 53.79585075500006, 23.429179595000051 ] } },
{ "type": "Feature", "properties": { "GID_0": "ARE", "NAME_0": "United Arab Emirates", "GID_1": "ARE.2_1", "NAME_1": "Ajman", "HASC_1": "AE.AJ", "CARBON": 3.54621598125, "POPULATION": 289676.15551800001, "PERCAPCARB": 1.2242001675599999e-05, "UNITTYPE": "STATE", "POPDENSITY": 13839257.693299999, "ORIG_FID": 83 }, "geometry": { "type": "Point", "coordinates": [ 55.525877804000061, 25.401995720000059 ] } },
{ "type": "Feature", "properties": { "GID_0": "ARE", "NAME_0": "United Arab Emirates", "GID_1": "ARE.3_1", "NAME_1": "Dubai", "HASC_1": "AE.DU", "CARBON": 56.891491119100003, "POPULATION": 2475164.9173900001, "PERCAPCARB": 2.2984929496799999e-05, "UNITTYPE": "STATE", "POPDENSITY": 6777665.0076099997, "ORIG_FID": 84 }, "geometry": { "type": "Point", "coordinates": [ 55.372755031000054, 24.942862835000028 ] } },
{ "type": "Feature", "properties": { "GID_0": "ARE", "NAME_0": "United Arab Emirates", "GID_1": "ARE.4_1", "NAME_1": "Fujairah", "HASC_1": "AE.FU", "CARBON": 9.6731493515799993, "POPULATION": 201128.79014600001, "PERCAPCARB": 4.80943048709e-05, "UNITTYPE": "STATE", "POPDENSITY": 1413831.622, "ORIG_FID": 85 }, "geometry": { "type": "Point", "coordinates": [ 56.272440912000036, 25.490504194000039 ] } },
{ "type": "Feature", "properties": { "GID_0": "ARE", "NAME_0": "United Arab Emirates", "GID_1": "ARE.5_1", "NAME_1": "Ras Al-Khaimah", "HASC_1": "AE.RK", "CARBON": 15.8033112907, "POPULATION": 282435.74431899999, "PERCAPCARB": 5.5953651790200003e-05, "UNITTYPE": "STATE", "POPDENSITY": 1295214.9937400001, "ORIG_FID": 86 }, "geometry": { "type": "Point", "coordinates": [ 56.007077745000061, 25.678634356000032 ] } },
{ "type": "Feature", "properties": { "GID_0": "ARE", "NAME_0": "United Arab Emirates", "GID_1": "ARE.6_1", "NAME_1": "Sharjah", "HASC_1": "AE.SH", "CARBON": 46.119708697900002, "POPULATION": 1357721.7252, "PERCAPCARB": 3.39684545381e-05, "UNITTYPE": "STATE", "POPDENSITY": 6022269.4446099997, "ORIG_FID": 87 }, "geometry": { "type": "Point", "coordinates": [ 55.750319304000072, 25.175450696000041 ] } },
{ "type": "Feature", "properties": { "GID_0": "ARE", "NAME_0": "United Arab Emirates", "GID_1": "ARE.7_1", "NAME_1": "Umm al-Qaywayn", "HASC_1": "AE.UQ", "CARBON": 6.1103189867000003, "POPULATION": 71521.337402100005, "PERCAPCARB": 8.5433511293899993e-05, "UNITTYPE": "STATE", "POPDENSITY": 1072463.6410300001, "ORIG_FID": 88 }, "geometry": { "type": "Point", "coordinates": [ 55.747123845000033, 25.482507974000043 ] } },
{ "type": "Feature", "properties": { "GID_0": "ARG", "NAME_0": "Argentina", "GID_1": "ARG.1_1", "NAME_1": "Buenos Aires", "HASC_1": "AR.BA", "CARBON": 111.352547935, "POPULATION": 16719421.3166, "PERCAPCARB": 6.6600718904099998e-06, "UNITTYPE": "STATE", "POPDENSITY": 539949.89864200004, "ORIG_FID": 89 }, "geometry": { "type": "Point", "coordinates": [ -60.561976120999987, -36.675517640999942 ] } },
{ "type": "Feature", "properties": { "GID_0": "ARG", "NAME_0": "Argentina", "GID_1": "ARG.2_1", "NAME_1": "Catamarca", "HASC_1": "AR.CT", "CARBON": 5.2452122185799999, "POPULATION": 388993.35399799998, "PERCAPCARB": 1.3484066410599999e-05, "UNITTYPE": "STATE", "POPDENSITY": 41862.065873899999, "ORIG_FID": 90 }, "geometry": { "type": "Point", "coordinates": [ -66.952444501999935, -27.332183211999961 ] } },
{ "type": "Feature", "properties": { "GID_0": "ARG", "NAME_0": "Argentina", "GID_1": "ARG.3_1", "NAME_1": "Chaco", "HASC_1": "AR.CC", "CARBON": 11.763799119, "POPULATION": 1093569.2602299999, "PERCAPCARB": 1.0757251092199999e-05, "UNITTYPE": "STATE", "POPDENSITY": 121170.69081299999, "ORIG_FID": 91 }, "geometry": { "type": "Point", "coordinates": [ -60.766741834999948, -26.38737495 ] } },
{ "type": "Feature", "properties": { "GID_0": "ARG", "NAME_0": "Argentina", "GID_1": "ARG.4_1", "NAME_1": "Chubut", "HASC_1": "AR.CH", "CARBON": 16.691606524499999, "POPULATION": 575018.84432100004, "PERCAPCARB": 2.9027929587599999e-05, "UNITTYPE": "STATE", "POPDENSITY": 22932.584770699999, "ORIG_FID": 92 }, "geometry": { "type": "Point", "coordinates": [ -68.523630207999986, -43.789492170999949 ] } },
{ "type": "Feature", "properties": { "GID_0": "ARG", "NAME_0": "Argentina", "GID_1": "ARG.5_1", "NAME_1": "Ciudad de Buenos Aires", "HASC_1": "AR.DF", "CARBON": 28.649378776599999, "POPULATION": 2978240.9082, "PERCAPCARB": 9.6195639169600002e-06, "UNITTYPE": "STATE", "POPDENSITY": 143594080.11300001, "ORIG_FID": 93 }, "geometry": { "type": "Point", "coordinates": [ -58.444435852999959, -34.617677990999937 ] } },
{ "type": "Feature", "properties": { "GID_0": "ARG", "NAME_0": "Argentina", "GID_1": "ARG.6_1", "NAME_1": "Córdoba", "HASC_1": "AR.CB", "CARBON": 34.874008175, "POPULATION": 3457199.4630399998, "PERCAPCARB": 1.0087357859399999e-05, "UNITTYPE": "STATE", "POPDENSITY": 219590.96002299999, "ORIG_FID": 94 }, "geometry": { "type": "Point", "coordinates": [ -63.799547769999947, -32.141218097999968 ] } },
{ "type": "Feature", "properties": { "GID_0": "ARG", "NAME_0": "Argentina", "GID_1": "ARG.7_1", "NAME_1": "Corrientes", "HASC_1": "AR.CN", "CARBON": 10.8426712822, "POPULATION": 1028372.09138, "PERCAPCARB": 1.0543529305299999e-05, "UNITTYPE": "STATE", "POPDENSITY": 125077.047701, "ORIG_FID": 95 }, "geometry": { "type": "Point", "coordinates": [ -57.80585863899995, -28.776519792999977 ] } },
{ "type": "Feature", "properties": { "GID_0": "ARG", "NAME_0": "Argentina", "GID_1": "ARG.8_1", "NAME_1": "Entre Ríos", "HASC_1": "AR.ER", "CARBON": 15.342606495, "POPULATION": 1288878.98777, "PERCAPCARB": 1.19038378627e-05, "UNITTYPE": "STATE", "POPDENSITY": 173342.787189, "ORIG_FID": 96 }, "geometry": { "type": "Point", "coordinates": [ -59.207659078999939, -32.045797989999983 ] } },
{ "type": "Feature", "properties": { "GID_0": "ARG", "NAME_0": "Argentina", "GID_1": "ARG.9_1", "NAME_1": "Formosa", "HASC_1": "AR.FM", "CARBON": 7.0459243478199998, "POPULATION": 563464.06567499996, "PERCAPCARB": 1.25046560678e-05, "UNITTYPE": "STATE", "POPDENSITY": 83414.107403700007, "ORIG_FID": 97 }, "geometry": { "type": "Point", "coordinates": [ -59.934340353999971, -24.894434710999974 ] } },
{ "type": "Feature", "properties": { "GID_0": "ARG", "NAME_0": "Argentina", "GID_1": "ARG.10_1", "NAME_1": "Jujuy", "HASC_1": "AR.JY", "CARBON": 10.3250114507, "POPULATION": 708645.32230500004, "PERCAPCARB": 1.45700692938e-05, "UNITTYPE": "STATE", "POPDENSITY": 150886.37127500001, "ORIG_FID": 98 }, "geometry": { "type": "Point", "coordinates": [ -65.685554504999971, -23.176938707999966 ] } },
{ "type": "Feature", "properties": { "GID_0": "ARG", "NAME_0": "Argentina", "GID_1": "ARG.11_1", "NAME_1": "La Pampa", "HASC_1": "AR.LP", "CARBON": 8.3393681104000006, "POPULATION": 331135.74622899998, "PERCAPCARB": 2.51841373375e-05, "UNITTYPE": "STATE", "POPDENSITY": 22840.924385300001, "ORIG_FID": 99 }, "geometry": { "type": "Point", "coordinates": [ -65.448337744999947, -37.13031093099994 ] } },
{ "type": "Feature", "properties": { "GID_0": "ARG", "NAME_0": "Argentina", "GID_1": "ARG.12_1", "NAME_1": "La Rioja", "HASC_1": "AR.LR", "CARBON": 5.943394145, "POPULATION": 363696.532015, "PERCAPCARB": 1.6341629963e-05, "UNITTYPE": "STATE", "POPDENSITY": 42874.463256800002, "ORIG_FID": 100 }, "geometry": { "type": "Point", "coordinates": [ -67.178292801999987, -29.679885557999967 ] } },
{ "type": "Feature", "properties": { "GID_0": "ARG", "NAME_0": "Argentina", "GID_1": "ARG.13_1", "NAME_1": "Mendoza", "HASC_1": "AR.MZ", "CARBON": 25.822406274599999, "POPULATION": 1833568.9907500001, "PERCAPCARB": 1.4083138624599999e-05, "UNITTYPE": "STATE", "POPDENSITY": 125367.198196, "ORIG_FID": 101 }, "geometry": { "type": "Point", "coordinates": [ -68.586679047999951, -34.62865147499997 ] } },
{ "type": "Feature", "properties": { "GID_0": "ARG", "NAME_0": "Argentina", "GID_1": "ARG.14_1", "NAME_1": "Misiones", "HASC_1": "AR.MN", "CARBON": 4.63100879951, "POPULATION": 1212970.91374, "PERCAPCARB": 3.8179058929099998e-06, "UNITTYPE": "STATE", "POPDENSITY": 445420.11056100001, "ORIG_FID": 102 }, "geometry": { "type": "Point", "coordinates": [ -54.208804129999976, -26.457063996999977 ] } },
{ "type": "Feature", "properties": { "GID_0": "ARG", "NAME_0": "Argentina", "GID_1": "ARG.15_1", "NAME_1": "Neuquén", "HASC_1": "AR.NQ", "CARBON": 22.290923860700001, "POPULATION": 606508.83970999997, "PERCAPCARB": 3.67528425e-05, "UNITTYPE": "STATE", "POPDENSITY": 61935.608523900002, "ORIG_FID": 103 }, "geometry": { "type": "Point", "coordinates": [ -70.117978895999954, -38.635625395999966 ] } },
{ "type": "Feature", "properties": { "GID_0": "ARG", "NAME_0": "Argentina", "GID_1": "ARG.16_1", "NAME_1": "Río Negro", "HASC_1": "AR.RN", "CARBON": 13.2694576267, "POPULATION": 684640.18814900005, "PERCAPCARB": 1.9381651641899999e-05, "UNITTYPE": "STATE", "POPDENSITY": 31853.8954553, "ORIG_FID": 104 }, "geometry": { "type": "Point", "coordinates": [ -67.229014080999946, -40.406808044999934 ] } },
{ "type": "Feature", "properties": { "GID_0": "ARG", "NAME_0": "Argentina", "GID_1": "ARG.17_1", "NAME_1": "Salta", "HASC_1": "AR.SA", "CARBON": 17.985050053799998, "POPULATION": 1302694.1811800001, "PERCAPCARB": 1.38060415972e-05, "UNITTYPE": "STATE", "POPDENSITY": 94270.622139, "ORIG_FID": 105 }, "geometry": { "type": "Point", "coordinates": [ -65.453508374999956, -25.270342364999976 ] } },
{ "type": "Feature", "properties": { "GID_0": "ARG", "NAME_0": "Argentina", "GID_1": "ARG.18_1", "NAME_1": "San Juan", "HASC_1": "AR.SJ", "CARBON": 9.2624135724700007, "POPULATION": 720648.51972500002, "PERCAPCARB": 1.28528864196e-05, "UNITTYPE": "STATE", "POPDENSITY": 86535.119219900007, "ORIG_FID": 106 }, "geometry": { "type": "Point", "coordinates": [ -68.874960451999982, -30.864240110999958 ] } },
{ "type": "Feature", "properties": { "GID_0": "ARG", "NAME_0": "Argentina", "GID_1": "ARG.19_1", "NAME_1": "San Luis", "HASC_1": "AR.SL", "CARBON": 7.8229588254399998, "POPULATION": 476631.03744799999, "PERCAPCARB": 1.641302855e-05, "UNITTYPE": "STATE", "POPDENSITY": 64557.926279899999, "ORIG_FID": 107 }, "geometry": { "type": "Point", "coordinates": [ -66.029929987999935, -33.767412653999941 ] } },
{ "type": "Feature", "properties": { "GID_0": "ARG", "NAME_0": "Argentina", "GID_1": "ARG.20_1", "NAME_1": "Santa Cruz", "HASC_1": "AR.SC", "CARBON": 11.6740094943, "POPULATION": 333429.45146900002, "PERCAPCARB": 3.5011932637900001e-05, "UNITTYPE": "STATE", "POPDENSITY": 11159.246531500001, "ORIG_FID": 108 }, "geometry": { "type": "Point", "coordinates": [ -69.941530866999983, -48.812670694999952 ] } },
{ "type": "Feature", "properties": { "GID_0": "ARG", "NAME_0": "Argentina", "GID_1": "ARG.21_1", "NAME_1": "Santa Fe", "HASC_1": "AR.SF", "CARBON": 39.826844261700003, "POPULATION": 3307900.2152, "PERCAPCARB": 1.20399170685e-05, "UNITTYPE": "STATE", "POPDENSITY": 263828.56797799998, "ORIG_FID": 109 }, "geometry": { "type": "Point", "coordinates": [ -60.950708664999979, -30.703538142999946 ] } },
{ "type": "Feature", "properties": { "GID_0": "ARG", "NAME_0": "Argentina", "GID_1": "ARG.22_1", "NAME_1": "Santiago del Estero", "HASC_1": "AR.SE", "CARBON": 8.4124845286200003, "POPULATION": 918580.17573100002, "PERCAPCARB": 9.15813856088e-06, "UNITTYPE": "STATE", "POPDENSITY": 73262.887077899999, "ORIG_FID": 110 }, "geometry": { "type": "Point", "coordinates": [ -63.258476580999968, -27.782228433999933 ] } },
{ "type": "Feature", "properties": { "GID_0": "ARG", "NAME_0": "Argentina", "GID_1": "ARG.23_1", "NAME_1": "Tierra del Fuego", "HASC_1": "AR.TF", "CARBON": 2.1167687858400002, "POPULATION": 143381.747615, "PERCAPCARB": 1.4763167704800001e-05, "UNITTYPE": "STATE", "POPDENSITY": 49626.340651600003, "ORIG_FID": 111 }, "geometry": { "type": "Point", "coordinates": [ -67.859724042999972, -54.271112439999968 ] } },
{ "type": "Feature", "properties": { "GID_0": "ARG", "NAME_0": "Argentina", "GID_1": "ARG.24_1", "NAME_1": "Tucumán", "HASC_1": "AR.TM", "CARBON": 12.898574654400001, "POPULATION": 1506995.8352699999, "PERCAPCARB": 8.5591309229100006e-06, "UNITTYPE": "STATE", "POPDENSITY": 735644.15271900001, "ORIG_FID": 112 }, "geometry": { "type": "Point", "coordinates": [ -65.365698358999964, -26.943791963999956 ] } },
{ "type": "Feature", "properties": { "GID_0": "ARM", "NAME_0": "Armenia", "GID_1": "ARM.1_1", "NAME_1": "Aragatsotn", "HASC_1": "AM.AG", "CARBON": 0.71352613798099995, "POPULATION": 139180.248379, "PERCAPCARB": 5.1266336013400003e-06, "UNITTYPE": "STATE", "POPDENSITY": 455055.88864399999, "ORIG_FID": 113 }, "geometry": { "type": "Point", "coordinates": [ 44.34454822500004, 40.498314594000078 ] } },
{ "type": "Feature", "properties": { "GID_0": "ARM", "NAME_0": "Armenia", "GID_1": "ARM.2_1", "NAME_1": "Ararat", "HASC_1": "AM.AR", "CARBON": 0.99182312763900005, "POPULATION": 278655.61492899997, "PERCAPCARB": 3.55931506311e-06, "UNITTYPE": "STATE", "POPDENSITY": 1188891.9583099999, "ORIG_FID": 114 }, "geometry": { "type": "Point", "coordinates": [ 44.787300754000057, 39.963208752000071 ] } },
{ "type": "Feature", "properties": { "GID_0": "ARM", "NAME_0": "Armenia", "GID_1": "ARM.3_1", "NAME_1": "Armavir", "HASC_1": "AM.AV", "CARBON": 1.0733875237899999, "POPULATION": 322011.945473, "PERCAPCARB": 3.3333779658900001e-06, "UNITTYPE": "STATE", "POPDENSITY": 2338627.8656000001, "ORIG_FID": 115 }, "geometry": { "type": "Point", "coordinates": [ 44.042354583000076, 40.116942625000036 ] } },
{ "type": "Feature", "properties": { "GID_0": "ARM", "NAME_0": "Armenia", "GID_1": "ARM.4_1", "NAME_1": "Erevan", "HASC_1": "AM.ER", "CARBON": 2.5096428841399998, "POPULATION": 962213.15967900003, "PERCAPCARB": 2.6081984629800002e-06, "UNITTYPE": "STATE", "POPDENSITY": 32204513.8079, "ORIG_FID": 116 }, "geometry": { "type": "Point", "coordinates": [ 44.535761853000054, 40.178569543000037 ] } },
{ "type": "Feature", "properties": { "GID_0": "ARM", "NAME_0": "Armenia", "GID_1": "ARM.5_1", "NAME_1": "Gegharkunik", "HASC_1": "AM.GR", "CARBON": 0.77637182878199995, "POPULATION": 236291.80089000001, "PERCAPCARB": 3.2856486169199999e-06, "UNITTYPE": "STATE", "POPDENSITY": 434649.49826600001, "ORIG_FID": 117 }, "geometry": { "type": "Point", "coordinates": [ 45.342209036000042, 40.305321237000044 ] } },
{ "type": "Feature", "properties": { "GID_0": "ARM", "NAME_0": "Armenia", "GID_1": "ARM.6_1", "NAME_1": "Kotayk", "HASC_1": "AM.KT", "CARBON": 4.5284136456899997, "POPULATION": 234971.836151, "PERCAPCARB": 1.9272154994700001e-05, "UNITTYPE": "STATE", "POPDENSITY": 1123197.7861500001, "ORIG_FID": 118 }, "geometry": { "type": "Point", "coordinates": [ 44.704935057000057, 40.408043766000048 ] } },
{ "type": "Feature", "properties": { "GID_0": "ARM", "NAME_0": "Armenia", "GID_1": "ARM.7_1", "NAME_1": "Lori", "HASC_1": "AM.LO", "CARBON": 0.65506832542799998, "POPULATION": 218510.576967, "PERCAPCARB": 2.99787925381e-06, "UNITTYPE": "STATE", "POPDENSITY": 570086.61178499996, "ORIG_FID": 119 }, "geometry": { "type": "Point", "coordinates": [ 44.492347961000064, 40.981758572000047 ] } },
{ "type": "Feature", "properties": { "GID_0": "ARM", "NAME_0": "Armenia", "GID_1": "ARM.8_1", "NAME_1": "Shirak", "HASC_1": "AM.SH", "CARBON": 0.7316758374, "POPULATION": 238987.71179199999, "PERCAPCARB": 3.0615625879399999e-06, "UNITTYPE": "STATE", "POPDENSITY": 750016.22891399998, "ORIG_FID": 120 }, "geometry": { "type": "Point", "coordinates": [ 43.869868353000072, 40.827217922000045 ] } },
{ "type": "Feature", "properties": { "GID_0": "ARM", "NAME_0": "Armenia", "GID_1": "ARM.9_1", "NAME_1": "Syunik", "HASC_1": "AM.SU", "CARBON": 0.43823814356599999, "POPULATION": 138425.48745300001, "PERCAPCARB": 3.1658775535399999e-06, "UNITTYPE": "STATE", "POPDENSITY": 294572.99035799998, "ORIG_FID": 121 }, "geometry": { "type": "Point", "coordinates": [ 46.173481865000042, 39.346153761000039 ] } },
{ "type": "Feature", "properties": { "GID_0": "ARM", "NAME_0": "Armenia", "GID_1": "ARM.10_1", "NAME_1": "Tavush", "HASC_1": "AM.TV", "CARBON": 0.30760158275400001, "POPULATION": 131843.33377900001, "PERCAPCARB": 2.3330840774199999e-06, "UNITTYPE": "STATE", "POPDENSITY": 489823.93715299998, "ORIG_FID": 122 }, "geometry": { "type": "Point", "coordinates": [ 45.129680202000031, 40.911313883000048 ] } },
{ "type": "Feature", "properties": { "GID_0": "ARM", "NAME_0": "Armenia", "GID_1": "ARM.11_1", "NAME_1": "Vayots Dzor", "HASC_1": "AM.VD", "CARBON": 0.14802354649300001, "POPULATION": 51578.510664900001, "PERCAPCARB": 2.8698685670599998e-06, "UNITTYPE": "STATE", "POPDENSITY": 212087.04867300001, "ORIG_FID": 123 }, "geometry": { "type": "Point", "coordinates": [ 45.458366288000036, 39.772517837000066 ] } },
{ "type": "Feature", "properties": { "GID_0": "ASM", "NAME_0": "American Samoa", "GID_1": "ASM.2_1", "NAME_1": "Manu'a", "HASC_1": "AS.MA", "CARBON": 0.0, "POPULATION": 972.31446886100002, "PERCAPCARB": 0.0, "UNITTYPE": "STATE", "POPDENSITY": 155151.10588700001, "ORIG_FID": 124 }, "geometry": { "type": "Point", "coordinates": [ -169.477340694999981, -14.23958388099993 ] } },
{ "type": "Feature", "properties": { "GID_0": "ASM", "NAME_0": "American Samoa", "GID_1": "ASM.4_1", "NAME_1": "Western", "HASC_1": "AS.WT", "CARBON": 4.54173612595, "POPULATION": 29563.2926611, "PERCAPCARB": 0.00015362754676899999, "UNITTYPE": "STATE", "POPDENSITY": 4743992.0993900001, "ORIG_FID": 125 }, "geometry": { "type": "Point", "coordinates": [ -170.768759664999976, -14.323844879999967 ] } },
{ "type": "Feature", "properties": { "GID_0": "ATG", "NAME_0": "Antigua and Barbuda", "GID_1": "ATG.1_1", "NAME_1": "Barbuda", "HASC_1": "AG.BB", "CARBON": 0.00482427375391, "POPULATION": 1643.4556953900001, "PERCAPCARB": 2.9354449696699999e-06, "UNITTYPE": "STATE", "POPDENSITY": 127617.374387, "ORIG_FID": 126 }, "geometry": { "type": "Point", "coordinates": [ -61.793378186999973, 17.631530694000048 ] } },
{ "type": "Feature", "properties": { "GID_0": "ATG", "NAME_0": "Antigua and Barbuda", "GID_1": "ATG.5_1", "NAME_1": "Saint Mary", "HASC_1": "AG.MA", "CARBON": 0.22687989473299999, "POPULATION": 8060.421875, "PERCAPCARB": 2.8147397028599999e-05, "UNITTYPE": "STATE", "POPDENSITY": 1537542.8052099999, "ORIG_FID": 127 }, "geometry": { "type": "Point", "coordinates": [ -61.857778548999931, 17.056008041000041 ] } },
{ "type": "Feature", "properties": { "GID_0": "ATG", "NAME_0": "Antigua and Barbuda", "GID_1": "ATG.7_1", "NAME_1": "Saint Peter", "HASC_1": "AG.PE", "CARBON": 0.206209212542, "POPULATION": 4937.7493591299999, "PERCAPCARB": 4.17617820476e-05, "UNITTYPE": "STATE", "POPDENSITY": 1678235.5088299999, "ORIG_FID": 128 }, "geometry": { "type": "Point", "coordinates": [ -61.760621864999962, 17.092140967000034 ] } },
{ "type": "Feature", "properties": { "GID_0": "AUS", "NAME_0": "Australia", "GID_1": "AUS.2_1", "NAME_1": "Australian Capital Territory", "HASC_1": "AU.AC", "CARBON": 6.6349332198399997, "POPULATION": 356475.37350099999, "PERCAPCARB": 1.86125991108e-05, "UNITTYPE": "STATE", "POPDENSITY": 1522042.05373, "ORIG_FID": 129 }, "geometry": { "type": "Point", "coordinates": [ 149.00248633800004, -35.488806497999974 ] } },
{ "type": "Feature", "properties": { "GID_0": "AUS", "NAME_0": "Australia", "GID_1": "AUS.5_1", "NAME_1": "New South Wales", "HASC_1": "AU.NS", "CARBON": 307.80308271299998, "POPULATION": 6752858.1601400003, "PERCAPCARB": 4.55811562177e-05, "UNITTYPE": "STATE", "POPDENSITY": 88133.969690500002, "ORIG_FID": 130 }, "geometry": { "type": "Point", "coordinates": [ 147.014312719000031, -32.175783806999959 ] } },
{ "type": "Feature", "properties": { "GID_0": "AUS", "NAME_0": "Australia", "GID_1": "AUS.6_1", "NAME_1": "Northern Territory", "HASC_1": "AU.NT", "CARBON": 8.2436671137000008, "POPULATION": 205398.00221800001, "PERCAPCARB": 4.0135089069400003e-05, "UNITTYPE": "STATE", "POPDENSITY": 1767.1923106500001, "ORIG_FID": 131 }, "geometry": { "type": "Point", "coordinates": [ 133.370000617000073, -19.478877255999976 ] } },
{ "type": "Feature", "properties": { "GID_0": "AUS", "NAME_0": "Australia", "GID_1": "AUS.7_1", "NAME_1": "Queensland", "HASC_1": "AU.QL", "CARBON": 184.130468439, "POPULATION": 4236806.1189400004, "PERCAPCARB": 4.3459734354100002e-05, "UNITTYPE": "STATE", "POPDENSITY": 27823.075445800001, "ORIG_FID": 132 }, "geometry": { "type": "Point", "coordinates": [ 144.533394323000039, -22.574762389999933 ] } },
{ "type": "Feature", "properties": { "GID_0": "AUS", "NAME_0": "Australia", "GID_1": "AUS.8_1", "NAME_1": "South Australia", "HASC_1": "AU.SA", "CARBON": 47.958413548599999, "POPULATION": 1578897.11687, "PERCAPCARB": 3.03746286164e-05, "UNITTYPE": "STATE", "POPDENSITY": 17121.8254027, "ORIG_FID": 133 }, "geometry": { "type": "Point", "coordinates": [ 135.824793810000074, -30.07984001799997 ] } },
{ "type": "Feature", "properties": { "GID_0": "AUS", "NAME_0": "Australia", "GID_1": "AUS.9_1", "NAME_1": "Tasmania", "HASC_1": "AU.TS", "CARBON": 9.4336884098699993, "POPULATION": 473239.94167799997, "PERCAPCARB": 1.9934260782000001e-05, "UNITTYPE": "STATE", "POPDENSITY": 63920.5305008, "ORIG_FID": 134 }, "geometry": { "type": "Point", "coordinates": [ 146.57928822100007, -42.010705806999965 ] } },
{ "type": "Feature", "properties": { "GID_0": "AUS", "NAME_0": "Australia", "GID_1": "AUS.10_1", "NAME_1": "Victoria", "HASC_1": "AU.VI", "CARBON": 212.454436641, "POPULATION": 5315056.0983899999, "PERCAPCARB": 3.9972190830600002e-05, "UNITTYPE": "STATE", "POPDENSITY": 231197.15373699999, "ORIG_FID": 135 }, "geometry": { "type": "Point", "coordinates": [ 143.215435027000012, -36.749161496999932 ] } },
{ "type": "Feature", "properties": { "GID_0": "AUS", "NAME_0": "Australia", "GID_1": "AUS.11_1", "NAME_1": "Western Australia", "HASC_1": "AU.WA", "CARBON": 86.094815630100001, "POPULATION": 2197641.6140800002, "PERCAPCARB": 3.9176003529599999e-05, "UNITTYPE": "STATE", "POPDENSITY": 9654.4027072200006, "ORIG_FID": 136 }, "geometry": { "type": "Point", "coordinates": [ 122.184466548000046, -25.472879972999976 ] } },
{ "type": "Feature", "properties": { "GID_0": "AUT", "NAME_0": "Austria", "GID_1": "AUT.1_1", "NAME_1": "Burgenland", "HASC_1": "AT.BU", "CARBON": 8.1378304313399994, "POPULATION": 293824.20789700001, "PERCAPCARB": 2.7696255831299999e-05, "UNITTYPE": "STATE", "POPDENSITY": 619443.88500400004, "ORIG_FID": 137 }, "geometry": { "type": "Point", "coordinates": [ 16.52020566300007, 47.541448740000078 ] } },
{ "type": "Feature", "properties": { "GID_0": "AUT", "NAME_0": "Austria", "GID_1": "AUT.2_1", "NAME_1": "Kärnten", "HASC_1": "AT.KA", "CARBON": 13.8749014146, "POPULATION": 556298.80644199997, "PERCAPCARB": 2.49414545815e-05, "UNITTYPE": "STATE", "POPDENSITY": 498688.83453300002, "ORIG_FID": 138 }, "geometry": { "type": "Point", "coordinates": [ 14.455532075000065, 46.715831647000073 ] } },
{ "type": "Feature", "properties": { "GID_0": "AUT", "NAME_0": "Austria", "GID_1": "AUT.3_1", "NAME_1": "Niederösterreich", "HASC_1": "AT.NO", "CARBON": 60.652846416099997, "POPULATION": 1714291.7496, "PERCAPCARB": 3.5380702514799998e-05, "UNITTYPE": "STATE", "POPDENSITY": 735451.48679700005, "ORIG_FID": 139 }, "geometry": { "type": "Point", "coordinates": [ 15.763244734000068, 48.270510379000029 ] } },
{ "type": "Feature", "properties": { "GID_0": "AUT", "NAME_0": "Austria", "GID_1": "AUT.4_1", "NAME_1": "Oberösterreich", "HASC_1": "AT.OO", "CARBON": 39.132923520600002, "POPULATION": 1419160.1550400001, "PERCAPCARB": 2.7574705632499999e-05, "UNITTYPE": "STATE", "POPDENSITY": 982670.73170899996, "ORIG_FID": 140 }, "geometry": { "type": "Point", "coordinates": [ 13.964294831000075, 48.13816599200004 ] } },
{ "type": "Feature", "properties": { "GID_0": "AUT", "NAME_0": "Austria", "GID_1": "AUT.5_1", "NAME_1": "Salzburg", "HASC_1": "AT.SZ", "CARBON": 13.9634807617, "POPULATION": 537138.91922200006, "PERCAPCARB": 2.59960324267e-05, "UNITTYPE": "STATE", "POPDENSITY": 627976.02340199996, "ORIG_FID": 141 }, "geometry": { "type": "Point", "coordinates": [ 13.032652855000038, 47.254050816000074 ] } },
{ "type": "Feature", "properties": { "GID_0": "AUT", "NAME_0": "Austria", "GID_1": "AUT.6_1", "NAME_1": "Steiermark", "HASC_1": "AT.ST", "CARBON": 30.9807025054, "POPULATION": 1222290.1728699999, "PERCAPCARB": 2.5346438344199999e-05, "UNITTYPE": "STATE", "POPDENSITY": 625554.81194499996, "ORIG_FID": 142 }, "geometry": { "type": "Point", "coordinates": [ 15.518046380000044, 47.187361408000072 ] } },
{ "type": "Feature", "properties": { "GID_0": "AUT", "NAME_0": "Austria", "GID_1": "AUT.7_1", "NAME_1": "Tirol", "HASC_1": "AT.TR", "CARBON": 21.121017508000001, "POPULATION": 729908.646266, "PERCAPCARB": 2.8936521873e-05, "UNITTYPE": "STATE", "POPDENSITY": 487811.25945000001, "ORIG_FID": 143 }, "geometry": { "type": "Point", "coordinates": [ 11.397603035000031, 47.209022516000061 ] } },
{ "type": "Feature", "properties": { "GID_0": "AUT", "NAME_0": "Austria", "GID_1": "AUT.8_1", "NAME_1": "Vorarlberg", "HASC_1": "AT.VO", "CARBON": 6.6754652317599996, "POPULATION": 377322.76077, "PERCAPCARB": 1.76916579804e-05, "UNITTYPE": "STATE", "POPDENSITY": 1229115.90283, "ORIG_FID": 144 }, "geometry": { "type": "Point", "coordinates": [ 9.896366158000035, 47.240148924000039 ] } },
{ "type": "Feature", "properties": { "GID_0": "AUT", "NAME_0": "Austria", "GID_1": "AUT.9_1", "NAME_1": "Wien", "HASC_1": "AT.WI", "CARBON": 20.106370568300001, "POPULATION": 1720248.4124, "PERCAPCARB": 1.16880622725e-05, "UNITTYPE": "STATE", "POPDENSITY": 34068676.498899996, "ORIG_FID": 145 }, "geometry": { "type": "Point", "coordinates": [ 16.380037999000024, 48.211410454000031 ] } },
{ "type": "Feature", "properties": { "GID_0": "AZE", "NAME_0": "Azerbaijan", "GID_1": "AZE.1_1", "NAME_1": "Absheron", "HASC_1": null, "CARBON": 19.8234859246, "POPULATION": 2842526.5586600001, "PERCAPCARB": 6.9738964669399998e-06, "UNITTYPE": "STATE", "POPDENSITY": 4360139.4056200003, "ORIG_FID": 146 }, "geometry": { "type": "Point", "coordinates": [ 49.428647054000066, 40.456059019000065 ] } },
{ "type": "Feature", "properties": { "GID_0": "AZE", "NAME_0": "Azerbaijan", "GID_1": "AZE.2_1", "NAME_1": "Aran", "HASC_1": null, "CARBON": 22.209977494099999, "POPULATION": 1908494.61026, "PERCAPCARB": 1.16374326523e-05, "UNITTYPE": "STATE", "POPDENSITY": 826548.32042500004, "ORIG_FID": 147 }, "geometry": { "type": "Point", "coordinates": [ 48.127352248000079, 40.019016514000043 ] } },
{ "type": "Feature", "properties": { "GID_0": "AZE", "NAME_0": "Azerbaijan", "GID_1": "AZE.3_1", "NAME_1": "Daglig-Shirvan", "HASC_1": null, "CARBON": 1.23158746132, "POPULATION": 303895.75708900002, "PERCAPCARB": 4.0526642198400001e-06, "UNITTYPE": "STATE", "POPDENSITY": 477102.40235, "ORIG_FID": 148 }, "geometry": { "type": "Point", "coordinates": [ 48.480735476000063, 40.640522934000046 ] } },
{ "type": "Feature", "properties": { "GID_0": "AZE", "NAME_0": "Azerbaijan", "GID_1": "AZE.4_1", "NAME_1": "Ganja-Qazakh", "HASC_1": null, "CARBON": 5.6722881892299997, "POPULATION": 1222313.6092099999, "PERCAPCARB": 4.6406160796199998e-06, "UNITTYPE": "STATE", "POPDENSITY": 951752.39016900002, "ORIG_FID": 149 }, "geometry": { "type": "Point", "coordinates": [ 46.003861298000061, 40.812214052000058 ] } },
{ "type": "Feature", "properties": { "GID_0": "AZE", "NAME_0": "Azerbaijan", "GID_1": "AZE.5_1", "NAME_1": "Kalbajar-Lachin", "HASC_1": null, "CARBON": 0.17337705305000001, "POPULATION": 243305.40065699999, "PERCAPCARB": 7.1259023672300002e-07, "UNITTYPE": "STATE", "POPDENSITY": 401611.15028200002, "ORIG_FID": 150 }, "geometry": { "type": "Point", "coordinates": [ 46.225507735000065, 39.94863106400004 ] } },
{ "type": "Feature", "properties": { "GID_0": "AZE", "NAME_0": "Azerbaijan", "GID_1": "AZE.6_1", "NAME_1": "Lankaran", "HASC_1": null, "CARBON": 3.48673872099, "POPULATION": 882637.54345899995, "PERCAPCARB": 3.9503630304800003e-06, "UNITTYPE": "STATE", "POPDENSITY": 1521461.3887100001, "ORIG_FID": 151 }, "geometry": { "type": "Point", "coordinates": [ 48.569665728000075, 38.921777300000031 ] } },
{ "type": "Feature", "properties": { "GID_0": "AZE", "NAME_0": "Azerbaijan", "GID_1": "AZE.7_1", "NAME_1": "Nakhchivan", "HASC_1": null, "CARBON": 3.3909846075100001, "POPULATION": 413454.91467299999, "PERCAPCARB": 8.2015825357799998e-06, "UNITTYPE": "STATE", "POPDENSITY": 734205.73652599996, "ORIG_FID": 152 }, "geometry": { "type": "Point", "coordinates": [ 45.515817178000077, 39.303269001000047 ] } },
{ "type": "Feature", "properties": { "GID_0": "AZE", "NAME_0": "Azerbaijan", "GID_1": "AZE.8_1", "NAME_1": "Quba-Khachmaz", "HASC_1": null, "CARBON": 3.4292970974100001, "POPULATION": 518714.56516100001, "PERCAPCARB": 6.6111447947099997e-06, "UNITTYPE": "STATE", "POPDENSITY": 658222.09602399997, "ORIG_FID": 153 }, "geometry": { "type": "Point", "coordinates": [ 48.582541990000038, 41.275923981000062 ] } },
{ "type": "Feature", "properties": { "GID_0": "AZE", "NAME_0": "Azerbaijan", "GID_1": "AZE.9_1", "NAME_1": "Shaki-Zaqatala", "HASC_1": null, "CARBON": 3.10062200022, "POPULATION": 594188.54692200001, "PERCAPCARB": 5.2182459865300004e-06, "UNITTYPE": "STATE", "POPDENSITY": 634405.14848900004, "ORIG_FID": 154 }, "geometry": { "type": "Point", "coordinates": [ 47.111513622000075, 41.232463510000059 ] } },
{ "type": "Feature", "properties": { "GID_0": "AZE", "NAME_0": "Azerbaijan", "GID_1": "AZE.10_1", "NAME_1": "Yukhari-Karabakh", "HASC_1": null, "CARBON": 1.9323807775, "POPULATION": 629176.40983200003, "PERCAPCARB": 3.07128612469e-06, "UNITTYPE": "STATE", "POPDENSITY": 808913.79368999996, "ORIG_FID": 155 }, "geometry": { "type": "Point", "coordinates": [ 46.957457367000075, 39.778792706000047 ] } },
{ "type": "Feature", "properties": { "GID_0": "BDI", "NAME_0": "Burundi", "GID_1": "BDI.1_1", "NAME_1": "Bubanza", "HASC_1": "BI.BB", "CARBON": 0.00622290459069, "POPULATION": 385953.87558, "PERCAPCARB": 1.61234411271e-08, "UNITTYPE": "STATE", "POPDENSITY": 4508210.9850599999, "ORIG_FID": 156 }, "geometry": { "type": "Point", "coordinates": [ 29.399333384000045, -3.12455603199993 ] } },
{ "type": "Feature", "properties": { "GID_0": "BDI", "NAME_0": "Burundi", "GID_1": "BDI.2_1", "NAME_1": "Bujumbura Mairie", "HASC_1": "BI.BM", "CARBON": 0.30113513767700001, "POPULATION": 682988.55318499997, "PERCAPCARB": 4.40908030264e-07, "UNITTYPE": "STATE", "POPDENSITY": 41628888.964400001, "ORIG_FID": 157 }, "geometry": { "type": "Point", "coordinates": [ 29.336218759000076, -3.383808533999968 ] } },
{ "type": "Feature", "properties": { "GID_0": "BDI", "NAME_0": "Burundi", "GID_1": "BDI.3_1", "NAME_1": "Bujumbura Rural", "HASC_1": "BI.BU", "CARBON": 0.024092365529200001, "POPULATION": 689429.81591400004, "PERCAPCARB": 3.4945349001600001e-08, "UNITTYPE": "STATE", "POPDENSITY": 5436728.8214100003, "ORIG_FID": 158 }, "geometry": { "type": "Point", "coordinates": [ 29.399738315000036, -3.559754658999964 ] } },
{ "type": "Feature", "properties": { "GID_0": "BDI", "NAME_0": "Burundi", "GID_1": "BDI.4_1", "NAME_1": "Bururi", "HASC_1": "BI.BR", "CARBON": 0.0078205592108099992, "POPULATION": 720720.92431799998, "PERCAPCARB": 1.08510228397e-08, "UNITTYPE": "STATE", "POPDENSITY": 2869265.2117, "ORIG_FID": 159 }, "geometry": { "type": "Point", "coordinates": [ 29.554673152000078, -3.891090636999934 ] } },
{ "type": "Feature", "properties": { "GID_0": "BDI", "NAME_0": "Burundi", "GID_1": "BDI.5_1", "NAME_1": "Cankuzo", "HASC_1": "BI.CA", "CARBON": 0.0040545512656500002, "POPULATION": 287621.96974899998, "PERCAPCARB": 1.4096806545e-08, "UNITTYPE": "STATE", "POPDENSITY": 1873676.96872, "ORIG_FID": 160 }, "geometry": { "type": "Point", "coordinates": [ 30.603736920000074, -3.141902629999947 ] } },
{ "type": "Feature", "properties": { "GID_0": "BDI", "NAME_0": "Burundi", "GID_1": "BDI.6_1", "NAME_1": "Cibitoke", "HASC_1": "BI.CI", "CARBON": 0.0047745328320200004, "POPULATION": 530036.36982300004, "PERCAPCARB": 9.0079343679900005e-09, "UNITTYPE": "STATE", "POPDENSITY": 4182570.6511400002, "ORIG_FID": 161 }, "geometry": { "type": "Point", "coordinates": [ 29.229253956000036, -2.819053774999929 ] } },
{ "type": "Feature", "properties": { "GID_0": "BDI", "NAME_0": "Burundi", "GID_1": "BDI.7_1", "NAME_1": "Gitega", "HASC_1": "BI.GI", "CARBON": 0.0146461356308, "POPULATION": 812736.17382799997, "PERCAPCARB": 1.8020774886600001e-08, "UNITTYPE": "STATE", "POPDENSITY": 5261203.97963, "ORIG_FID": 162 }, "geometry": { "type": "Point", "coordinates": [ 29.922228974000063, -3.492271132999974 ] } },
{ "type": "Feature", "properties": { "GID_0": "BDI", "NAME_0": "Burundi", "GID_1": "BDI.8_1", "NAME_1": "Karuzi", "HASC_1": "BI.KR", "CARBON": 0.0018937305831100001, "POPULATION": 487478.253952, "PERCAPCARB": 3.8847488431600004e-09, "UNITTYPE": "STATE", "POPDENSITY": 4246593.9135600002, "ORIG_FID": 163 }, "geometry": { "type": "Point", "coordinates": [ 30.120234654000058, -3.137381257999948 ] } },
{ "type": "Feature", "properties": { "GID_0": "BDI", "NAME_0": "Burundi", "GID_1": "BDI.9_1", "NAME_1": "Kayanza", "HASC_1": "BI.KY", "CARBON": 0.00389462521889, "POPULATION": 728205.49076800002, "PERCAPCARB": 5.3482502786099999e-09, "UNITTYPE": "STATE", "POPDENSITY": 7585862.9928000001, "ORIG_FID": 164 }, "geometry": { "type": "Point", "coordinates": [ 29.658968845000061, -3.007285298999932 ] } },
{ "type": "Feature", "properties": { "GID_0": "BDI", "NAME_0": "Burundi", "GID_1": "BDI.10_1", "NAME_1": "Kirundo", "HASC_1": "BI.KI", "CARBON": 0.002923394768, "POPULATION": 750121.18656399997, "PERCAPCARB": 3.8972299681199999e-09, "UNITTYPE": "STATE", "POPDENSITY": 5216776.42949, "ORIG_FID": 165 }, "geometry": { "type": "Point", "coordinates": [ 30.157644467000068, -2.544018994999931 ] } },
{ "type": "Feature", "properties": { "GID_0": "BDI", "NAME_0": "Burundi", "GID_1": "BDI.11_1", "NAME_1": "Makamba", "HASC_1": "BI.MA", "CARBON": 0.0057610074300100001, "POPULATION": 509507.69186000002, "PERCAPCARB": 1.13070077686e-08, "UNITTYPE": "STATE", "POPDENSITY": 2446881.0158600002, "ORIG_FID": 166 }, "geometry": { "type": "Point", "coordinates": [ 29.735686666000049, -4.247748078999962 ] } },
{ "type": "Feature", "properties": { "GID_0": "BDI", "NAME_0": "Burundi", "GID_1": "BDI.12_1", "NAME_1": "Muramvya", "HASC_1": "BI.MV", "CARBON": 0.00015361574151000001, "POPULATION": 329545.29144300002, "PERCAPCARB": 4.6614454977600002e-10, "UNITTYPE": "STATE", "POPDENSITY": 6079495.3123500003, "ORIG_FID": 167 }, "geometry": { "type": "Point", "coordinates": [ 29.651856828000064, -3.271246645999952 ] } },
{ "type": "Feature", "properties": { "GID_0": "BDI", "NAME_0": "Burundi", "GID_1": "BDI.13_1", "NAME_1": "Muyinga", "HASC_1": "BI.MY", "CARBON": 0.0059764831116799998, "POPULATION": 830000.77873999998, "PERCAPCARB": 7.2005753063899997e-09, "UNITTYPE": "STATE", "POPDENSITY": 5701106.3272900004, "ORIG_FID": 168 }, "geometry": { "type": "Point", "coordinates": [ 30.347166273000028, -2.776958205999961 ] } },
{ "type": "Feature", "properties": { "GID_0": "BDI", "NAME_0": "Burundi", "GID_1": "BDI.14_1", "NAME_1": "Mwaro", "HASC_1": "BI.MW", "CARBON": 0.0028469929247899998, "POPULATION": 314495.73341400002, "PERCAPCARB": 9.0525645416100007e-09, "UNITTYPE": "STATE", "POPDENSITY": 4707772.129, "ORIG_FID": 169 }, "geometry": { "type": "Point", "coordinates": [ 29.71529971800004, -3.490551130999961 ] } },
{ "type": "Feature", "properties": { "GID_0": "BDI", "NAME_0": "Burundi", "GID_1": "BDI.15_1", "NAME_1": "Ngozi", "HASC_1": "BI.NG", "CARBON": 0.0077416012909500001, "POPULATION": 747794.20608499995, "PERCAPCARB": 1.0352582606199999e-08, "UNITTYPE": "STATE", "POPDENSITY": 6538953.6325300001, "ORIG_FID": 170 }, "geometry": { "type": "Point", "coordinates": [ 29.92491022400003, -2.874977643999955 ] } },
{ "type": "Feature", "properties": { "GID_0": "BDI", "NAME_0": "Burundi", "GID_1": "BDI.16_1", "NAME_1": "Rutana", "HASC_1": "BI.RT", "CARBON": 0.0054033579881399996, "POPULATION": 435224.48647300003, "PERCAPCARB": 1.24151056663e-08, "UNITTYPE": "STATE", "POPDENSITY": 2892485.1742400001, "ORIG_FID": 171 }, "geometry": { "type": "Point", "coordinates": [ 30.094934673000068, -3.875026822999928 ] } },
{ "type": "Feature", "properties": { "GID_0": "BDI", "NAME_0": "Burundi", "GID_1": "BDI.17_1", "NAME_1": "Ruyigi", "HASC_1": "BI.RY", "CARBON": 0.00718856138752, "POPULATION": 507604.46417200001, "PERCAPCARB": 1.4161737917799999e-08, "UNITTYPE": "STATE", "POPDENSITY": 2772850.3726300001, "ORIG_FID": 172 }, "geometry": { "type": "Point", "coordinates": [ 30.322775684000078, -3.458014987999945 ] } },
{ "type": "Feature", "properties": { "GID_0": "BEL", "NAME_0": "Belgium", "GID_1": "BEL.1_1", "NAME_1": "Bruxelles", "HASC_1": null, "CARBON": 5.8412108421299997, "POPULATION": 1156147.4175400001, "PERCAPCARB": 5.05230626606e-06, "UNITTYPE": "STATE", "POPDENSITY": 57967242.478, "ORIG_FID": 173 }, "geometry": { "type": "Point", "coordinates": [ 4.367414882000048, 50.836425805000033 ] } },
{ "type": "Feature", "properties": { "GID_0": "BEL", "NAME_0": "Belgium", "GID_1": "BEL.2_1", "NAME_1": "Vlaanderen", "HASC_1": null, "CARBON": 245.302086651, "POPULATION": 6466871.5067699999, "PERCAPCARB": 3.7932110819599999e-05, "UNITTYPE": "STATE", "POPDENSITY": 3682586.3889199998, "ORIG_FID": 174 }, "geometry": { "type": "Point", "coordinates": [ 4.236995531000048, 51.035443945000054 ] } },
{ "type": "Feature", "properties": { "GID_0": "BEL", "NAME_0": "Belgium", "GID_1": "BEL.3_1", "NAME_1": "Wallonie", "HASC_1": null, "CARBON": 119.056623019, "POPULATION": 3609665.1646199999, "PERCAPCARB": 3.2982733187099999e-05, "UNITTYPE": "STATE", "POPDENSITY": 1697516.6852500001, "ORIG_FID": 175 }, "geometry": { "type": "Point", "coordinates": [ 5.018656650000025, 50.310842295000043 ] } },
{ "type": "Feature", "properties": { "GID_0": "BEN", "NAME_0": "Benin", "GID_1": "BEN.1_1", "NAME_1": "Alibori", "HASC_1": "BJ.AL", "CARBON": 0.47260821014799997, "POPULATION": 954085.91523100005, "PERCAPCARB": 4.9535183635299996e-07, "UNITTYPE": "STATE", "POPDENSITY": 435010.826649, "ORIG_FID": 176 }, "geometry": { "type": "Point", "coordinates": [ 2.904159629000048, 11.334217357000057 ] } },
{ "type": "Feature", "properties": { "GID_0": "BEN", "NAME_0": "Benin", "GID_1": "BEN.2_1", "NAME_1": "Atakora", "HASC_1": "BJ.AK", "CARBON": 0.42474653138200003, "POPULATION": 882661.84182199999, "PERCAPCARB": 4.8121093634800001e-07, "UNITTYPE": "STATE", "POPDENSITY": 513604.78861, "ORIG_FID": 177 }, "geometry": { "type": "Point", "coordinates": [ 1.581715981000059, 10.693534272000022 ] } },
{ "type": "Feature", "properties": { "GID_0": "BEN", "NAME_0": "Benin", "GID_1": "BEN.3_1", "NAME_1": "Atlantique", "HASC_1": "BJ.AQ", "CARBON": 1.70380644652, "POPULATION": 1508203.69695, "PERCAPCARB": 1.1296925275799999e-06, "UNITTYPE": "STATE", "POPDENSITY": 5999141.6144700004, "ORIG_FID": 178 }, "geometry": { "type": "Point", "coordinates": [ 2.22164272200007, 6.611915560000057 ] } },
{ "type": "Feature", "properties": { "GID_0": "BEN", "NAME_0": "Benin", "GID_1": "BEN.4_1", "NAME_1": "Borgou", "HASC_1": "BJ.BO", "CARBON": 0.72119563599699998, "POPULATION": 1319444.06428, "PERCAPCARB": 5.4659053423999996e-07, "UNITTYPE": "STATE", "POPDENSITY": 614004.69859799999, "ORIG_FID": 179 }, "geometry": { "type": "Point", "coordinates": [ 2.766480957000056, 9.788361595000026 ] } },
{ "type": "Feature", "properties": { "GID_0": "BEN", "NAME_0": "Benin", "GID_1": "BEN.5_1", "NAME_1": "Collines", "HASC_1": "BJ.CL", "CARBON": 0.25019371997599998, "POPULATION": 756233.62005799997, "PERCAPCARB": 3.3084183688699999e-07, "UNITTYPE": "STATE", "POPDENSITY": 648317.72377000004, "ORIG_FID": 180 }, "geometry": { "type": "Point", "coordinates": [ 2.190811515000064, 8.018116442000064 ] } },
{ "type": "Feature", "properties": { "GID_0": "BEN", "NAME_0": "Benin", "GID_1": "BEN.6_1", "NAME_1": "Donga", "HASC_1": "BJ.DO", "CARBON": 0.213573326531, "POPULATION": 587900.00107200001, "PERCAPCARB": 3.6328172502499998e-07, "UNITTYPE": "STATE", "POPDENSITY": 653251.66083199997, "ORIG_FID": 181 }, "geometry": { "type": "Point", "coordinates": [ 1.794703301000027, 9.355628835000061 ] } },
{ "type": "Feature", "properties": { "GID_0": "BEN", "NAME_0": "Benin", "GID_1": "BEN.7_1", "NAME_1": "Kouffo", "HASC_1": "BJ.CF", "CARBON": 0.200881041412, "POPULATION": 786260.02903700003, "PERCAPCARB": 2.5548932159e-07, "UNITTYPE": "STATE", "POPDENSITY": 3859832.64433, "ORIG_FID": 182 }, "geometry": { "type": "Point", "coordinates": [ 1.782894314000032, 6.99643680500003 ] } },
{ "type": "Feature", "properties": { "GID_0": "BEN", "NAME_0": "Benin", "GID_1": "BEN.8_1", "NAME_1": "Littoral", "HASC_1": "BJ.LI", "CARBON": 1.06802964211, "POPULATION": 608286.80078100006, "PERCAPCARB": 1.7557994694800001e-06, "UNITTYPE": "STATE", "POPDENSITY": 180238388.20899999, "ORIG_FID": 183 }, "geometry": { "type": "Point", "coordinates": [ 2.411789841000029, 6.364694713000063 ] } },
{ "type": "Feature", "properties": { "GID_0": "BEN", "NAME_0": "Benin", "GID_1": "BEN.9_1", "NAME_1": "Mono", "HASC_1": "BJ.MO", "CARBON": 0.286570093129, "POPULATION": 526974.08844600001, "PERCAPCARB": 5.4380300552099999e-07, "UNITTYPE": "STATE", "POPDENSITY": 4051895.91291, "ORIG_FID": 184 }, "geometry": { "type": "Point", "coordinates": [ 1.838327774000049, 6.550533061000067 ] } },
{ "type": "Feature", "properties": { "GID_0": "BEN", "NAME_0": "Benin", "GID_1": "BEN.10_1", "NAME_1": "Ouémé", "HASC_1": "BJ.OU", "CARBON": 1.05806465284, "POPULATION": 1187601.6673699999, "PERCAPCARB": 8.9092553666199998e-07, "UNITTYPE": "STATE", "POPDENSITY": 10766643.1307, "ORIG_FID": 185 }, "geometry": { "type": "Point", "coordinates": [ 2.634010790000048, 6.488037931000065 ] } },
{ "type": "Feature", "properties": { "GID_0": "BEN", "NAME_0": "Benin", "GID_1": "BEN.11_1", "NAME_1": "Plateau", "HASC_1": "BJ.PL", "CARBON": 0.36616520391500001, "POPULATION": 669404.95752699999, "PERCAPCARB": 5.4700103397499999e-07, "UNITTYPE": "STATE", "POPDENSITY": 2539387.7053800002, "ORIG_FID": 186 }, "geometry": { "type": "Point", "coordinates": [ 2.62889487700005, 7.179497971000046 ] } },
{ "type": "Feature", "properties": { "GID_0": "BEN", "NAME_0": "Benin", "GID_1": "BEN.12_1", "NAME_1": "Zou", "HASC_1": "BJ.ZO", "CARBON": 0.409262098139, "POPULATION": 908696.92052100005, "PERCAPCARB": 4.5038349849800002e-07, "UNITTYPE": "STATE", "POPDENSITY": 2153431.9167, "ORIG_FID": 187 }, "geometry": { "type": "Point", "coordinates": [ 2.108615105000069, 7.274657761000071 ] } },
{ "type": "Feature", "properties": { "GID_0": "BES", "NAME_0": "Bonaire, Sint Eustatius and Saba", "GID_1": "BES.1_1", "NAME_1": "Bonaire", "HASC_1": null, "CARBON": 0.0, "POPULATION": 18048.377742000001, "PERCAPCARB": 0.0, "UNITTYPE": "STATE", "POPDENSITY": 759989.62589799997, "ORIG_FID": 188 }, "geometry": { "type": "Point", "coordinates": [ -68.307914733999951, 12.226943970000036 ] } },
{ "type": "Feature", "properties": { "GID_0": "BFA", "NAME_0": "Burkina Faso", "GID_1": "BFA.1_1", "NAME_1": "Boucle du Mouhoun", "HASC_1": "BF.BO", "CARBON": 0.056369359488899998, "POPULATION": 1741446.51309, "PERCAPCARB": 3.2369274086399999e-08, "UNITTYPE": "STATE", "POPDENSITY": 606048.99028499995, "ORIG_FID": 189 }, "geometry": { "type": "Point", "coordinates": [ -3.488816846999953, 12.540666338000051 ] } },
{ "type": "Feature", "properties": { "GID_0": "BFA", "NAME_0": "Burkina Faso", "GID_1": "BFA.2_1", "NAME_1": "Cascades", "HASC_1": "BF.CD", "CARBON": 0.044627893523100003, "POPULATION": 853581.28425499995, "PERCAPCARB": 5.2283120947400003e-08, "UNITTYPE": "STATE", "POPDENSITY": 556699.62311499997, "ORIG_FID": 190 }, "geometry": { "type": "Point", "coordinates": [ -4.570418021999956, 10.351713414000073 ] } },
{ "type": "Feature", "properties": { "GID_0": "BFA", "NAME_0": "Burkina Faso", "GID_1": "BFA.7_1", "NAME_1": "Centre", "HASC_1": "BF.CT", "CARBON": 1.5222693706099999, "POPULATION": 3050441.24596, "PERCAPCARB": 4.9903251624000002e-07, "UNITTYPE": "STATE", "POPDENSITY": 12792933.0119, "ORIG_FID": 191 }, "geometry": { "type": "Point", "coordinates": [ -1.502275099999963, 12.322548825000069 ] } },
{ "type": "Feature", "properties": { "GID_0": "BFA", "NAME_0": "Burkina Faso", "GID_1": "BFA.3_1", "NAME_1": "Centre-Est", "HASC_1": "BF.CE", "CARBON": 0.056185437093499997, "POPULATION": 1478044.3806499999, "PERCAPCARB": 3.80133626764e-08, "UNITTYPE": "STATE", "POPDENSITY": 1213155.85861, "ORIG_FID": 192 }, "geometry": { "type": "Point", "coordinates": [ -0.186053860999948, 11.605337117000033 ] } },
{ "type": "Feature", "properties": { "GID_0": "BFA", "NAME_0": "Burkina Faso", "GID_1": "BFA.4_1", "NAME_1": "Centre-Nord", "HASC_1": "BF.CN", "CARBON": 0.0597363138691, "POPULATION": 1521327.5299800001, "PERCAPCARB": 3.9265912626800001e-08, "UNITTYPE": "STATE", "POPDENSITY": 927260.29861699999, "ORIG_FID": 193 }, "geometry": { "type": "Point", "coordinates": [ -0.974549855999953, 13.268768650000027 ] } },
{ "type": "Feature", "properties": { "GID_0": "BFA", "NAME_0": "Burkina Faso", "GID_1": "BFA.5_1", "NAME_1": "Centre-Ouest", "HASC_1": "BF.CO", "CARBON": 0.24859295272900001, "POPULATION": 1507530.0423699999, "PERCAPCARB": 1.6490082833700001e-07, "UNITTYPE": "STATE", "POPDENSITY": 832760.83232599997, "ORIG_FID": 194 }, "geometry": { "type": "Point", "coordinates": [ -2.218592657999977, 11.792338849000032 ] } },
{ "type": "Feature", "properties": { "GID_0": "BFA", "NAME_0": "Burkina Faso", "GID_1": "BFA.6_1", "NAME_1": "Centre-Sud", "HASC_1": "BF.CS", "CARBON": 0.0124073137227, "POPULATION": 781679.49144300004, "PERCAPCARB": 1.5872635598699999e-08, "UNITTYPE": "STATE", "POPDENSITY": 819203.87550199998, "ORIG_FID": 195 }, "geometry": { "type": "Point", "coordinates": [ -0.931555014999958, 11.49010508300006 ] } },
{ "type": "Feature", "properties": { "GID_0": "BFA", "NAME_0": "Burkina Faso", "GID_1": "BFA.8_1", "NAME_1": "Est", "HASC_1": "BF.ES", "CARBON": 0.19565574683100001, "POPULATION": 1682639.38478, "PERCAPCARB": 1.1627907239100001e-07, "UNITTYPE": "STATE", "POPDENSITY": 434689.49309300003, "ORIG_FID": 196 }, "geometry": { "type": "Point", "coordinates": [ 0.91989297300006, 12.227672319000021 ] } },
{ "type": "Feature", "properties": { "GID_0": "BFA", "NAME_0": "Burkina Faso", "GID_1": "BFA.9_1", "NAME_1": "Haut-Bassins", "HASC_1": "BF.HB", "CARBON": 0.234382086139, "POPULATION": 2049991.4725899999, "PERCAPCARB": 1.14333200539e-07, "UNITTYPE": "STATE", "POPDENSITY": 966141.45633199997, "ORIG_FID": 197 }, "geometry": { "type": "Point", "coordinates": [ -4.332121159999929, 11.367824195000026 ] } },
{ "type": "Feature", "properties": { "GID_0": "BFA", "NAME_0": "Burkina Faso", "GID_1": "BFA.10_1", "NAME_1": "Nord", "HASC_1": "BF.NO", "CARBON": 0.11432572524, "POPULATION": 1427414.9327400001, "PERCAPCARB": 8.0092846598000005e-08, "UNITTYPE": "STATE", "POPDENSITY": 1041613.75933, "ORIG_FID": 198 }, "geometry": { "type": "Point", "coordinates": [ -2.283268352999926, 13.459389963000035 ] } },
{ "type": "Feature", "properties": { "GID_0": "BFA", "NAME_0": "Burkina Faso", "GID_1": "BFA.11_1", "NAME_1": "Plateau-Central", "HASC_1": "BF.PC", "CARBON": 0.0140894993081, "POPULATION": 837223.51060200005, "PERCAPCARB": 1.6828838571400002e-08, "UNITTYPE": "STATE", "POPDENSITY": 1170383.3581300001, "ORIG_FID": 199 }, "geometry": { "type": "Point", "coordinates": [ -0.829229974999976, 12.22628129800006 ] } },
{ "type": "Feature", "properties": { "GID_0": "BFA", "NAME_0": "Burkina Faso", "GID_1": "BFA.12_1", "NAME_1": "Sahel", "HASC_1": "BF.SA", "CARBON": 0.028614978740100001, "POPULATION": 1269458.4381299999, "PERCAPCARB": 2.2541091445399999e-08, "UNITTYPE": "STATE", "POPDENSITY": 419396.02278300002, "ORIG_FID": 200 }, "geometry": { "type": "Point", "coordinates": [ -0.411432444999946, 14.36154920000007 ] } },
{ "type": "Feature", "properties": { "GID_0": "BFA", "NAME_0": "Burkina Faso", "GID_1": "BFA.13_1", "NAME_1": "Sud-Ouest", "HASC_1": "BF.SO", "CARBON": 0.0384533236628, "POPULATION": 799738.50442500005, "PERCAPCARB": 4.8082371237599997e-08, "UNITTYPE": "STATE", "POPDENSITY": 592689.96891699999, "ORIG_FID": 201 }, "geometry": { "type": "Point", "coordinates": [ -3.23280137699993, 10.478039331000048 ] } },
{ "type": "Feature", "properties": { "GID_0": "BGD", "NAME_0": "Bangladesh", "GID_1": "BGD.1_1", "NAME_1": "Barisal", "HASC_1": "BD.BA", "CARBON": 1.5021311634700001, "POPULATION": 8219189.63564, "PERCAPCARB": 1.8275903465699999e-07, "UNITTYPE": "STATE", "POPDENSITY": 9534438.8153499998, "ORIG_FID": 202 }, "geometry": { "type": "Point", "coordinates": [ 90.364429475000065, 22.826765216000069 ] } },
{ "type": "Feature", "properties": { "GID_0": "BGD", "NAME_0": "Bangladesh", "GID_1": "BGD.2_1", "NAME_1": "Chittagong", "HASC_1": "BD.CG", "CARBON": 20.382138165800001, "POPULATION": 29883619.382, "PERCAPCARB": 6.8205052089899998e-07, "UNITTYPE": "STATE", "POPDENSITY": 10954556.8935, "ORIG_FID": 203 }, "geometry": { "type": "Point", "coordinates": [ 92.139917375000039, 22.397128234000036 ] } },
{ "type": "Feature", "properties": { "GID_0": "BGD", "NAME_0": "Bangladesh", "GID_1": "BGD.3_1", "NAME_1": "Dhaka", "HASC_1": "BD.DH", "CARBON": 35.977715129800004, "POPULATION": 51432476.302299999, "PERCAPCARB": 6.9951357034299998e-07, "UNITTYPE": "STATE", "POPDENSITY": 18687105.3913, "ORIG_FID": 204 }, "geometry": { "type": "Point", "coordinates": [ 90.28951618800005, 24.183017247000066 ] } },
{ "type": "Feature", "properties": { "GID_0": "BGD", "NAME_0": "Bangladesh", "GID_1": "BGD.4_1", "NAME_1": "Khulna", "HASC_1": "BD.KH", "CARBON": 3.4686917354200002, "POPULATION": 16059195.1326, "PERCAPCARB": 2.1599412092400001e-07, "UNITTYPE": "STATE", "POPDENSITY": 8780035.7939500008, "ORIG_FID": 205 }, "geometry": { "type": "Point", "coordinates": [ 89.287235661000068, 23.012347870000042 ] } },
{ "type": "Feature", "properties": { "GID_0": "BGD", "NAME_0": "Bangladesh", "GID_1": "BGD.5_1", "NAME_1": "Rajshahi", "HASC_1": "BD.RS", "CARBON": 3.4572308009700001, "POPULATION": 19416196.283599999, "PERCAPCARB": 1.7805911881300001e-07, "UNITTYPE": "STATE", "POPDENSITY": 11960737.366, "ORIG_FID": 206 }, "geometry": { "type": "Point", "coordinates": [ 89.045256846000086, 24.588549187000069 ] } },
{ "type": "Feature", "properties": { "GID_0": "BGD", "NAME_0": "Bangladesh", "GID_1": "BGD.6_1", "NAME_1": "Rangpur", "HASC_1": "BD.RP", "CARBON": 5.5226920586299997, "POPULATION": 16534504.6874, "PERCAPCARB": 3.3401012990899997e-07, "UNITTYPE": "STATE", "POPDENSITY": 11334233.7281, "ORIG_FID": 207 }, "geometry": { "type": "Point", "coordinates": [ 89.055881286000044, 25.776813455000024 ] } },
{ "type": "Feature", "properties": { "GID_0": "BGD", "NAME_0": "Bangladesh", "GID_1": "BGD.7_1", "NAME_1": "Sylhet", "HASC_1": "BD.SY", "CARBON": 5.3317667319200002, "POPULATION": 10773061.5065, "PERCAPCARB": 4.9491657767900004e-07, "UNITTYPE": "STATE", "POPDENSITY": 9777333.44142, "ORIG_FID": 208 }, "geometry": { "type": "Point", "coordinates": [ 91.663728923000065, 24.715342728000053 ] } },
{ "type": "Feature", "properties": { "GID_0": "BGR", "NAME_0": "Bulgaria", "GID_1": "BGR.1_1", "NAME_1": "Blagoevgrad", "HASC_1": "BG.BL", "CARBON": 1.61386333744, "POPULATION": 315124.04101400002, "PERCAPCARB": 5.1213589805600002e-06, "UNITTYPE": "STATE", "POPDENSITY": 440914.54049300001, "ORIG_FID": 209 }, "geometry": { "type": "Point", "coordinates": [ 23.424299327000028, 41.722820068000033 ] } },
{ "type": "Feature", "properties": { "GID_0": "BGR", "NAME_0": "Bulgaria", "GID_1": "BGR.2_1", "NAME_1": "Burgas", "HASC_1": "BG.BR", "CARBON": 3.78649099619, "POPULATION": 412202.06259099999, "PERCAPCARB": 9.1860069122099993e-06, "UNITTYPE": "STATE", "POPDENSITY": 483563.70925700001, "ORIG_FID": 210 }, "geometry": { "type": "Point", "coordinates": [ 27.30689183100003, 42.491848162000053 ] } },
{ "type": "Feature", "properties": { "GID_0": "BGR", "NAME_0": "Bulgaria", "GID_1": "BGR.3_1", "NAME_1": "Dobrich", "HASC_1": "BG.DO", "CARBON": 2.3079791215399998, "POPULATION": 180626.324739, "PERCAPCARB": 1.27776453675e-05, "UNITTYPE": "STATE", "POPDENSITY": 343036.01179900003, "ORIG_FID": 211 }, "geometry": { "type": "Point", "coordinates": [ 27.936751229000038, 43.650740256000063 ] } },
{ "type": "Feature", "properties": { "GID_0": "BGR", "NAME_0": "Bulgaria", "GID_1": "BGR.4_1", "NAME_1": "Gabrovo", "HASC_1": "BG.GB", "CARBON": 0.91116096306399996, "POPULATION": 115340.14563699999, "PERCAPCARB": 7.8997729543999995e-06, "UNITTYPE": "STATE", "POPDENSITY": 469751.46632299997, "ORIG_FID": 212 }, "geometry": { "type": "Point", "coordinates": [ 25.247162740000078, 42.931879152000079 ] } },
{ "type": "Feature", "properties": { "GID_0": "BGR", "NAME_0": "Bulgaria", "GID_1": "BGR.5_1", "NAME_1": "Grad Sofiya", "HASC_1": "BG.SG", "CARBON": 4.08550528553, "POPULATION": 1324032.25159, "PERCAPCARB": 3.0856539035400001e-06, "UNITTYPE": "STATE", "POPDENSITY": 8914940.9433299992, "ORIG_FID": 213 }, "geometry": { "type": "Point", "coordinates": [ 23.401380857000049, 42.664461979000066 ] } },
{ "type": "Feature", "properties": { "GID_0": "BGR", "NAME_0": "Bulgaria", "GID_1": "BGR.6_1", "NAME_1": "Haskovo", "HASC_1": "BG.KK", "CARBON": 3.6980664771099998, "POPULATION": 234972.07705399999, "PERCAPCARB": 1.5738323138099999e-05, "UNITTYPE": "STATE", "POPDENSITY": 407045.61050800001, "ORIG_FID": 214 }, "geometry": { "type": "Point", "coordinates": [ 25.942348600000059, 41.84911302200004 ] } },
{ "type": "Feature", "properties": { "GID_0": "BGR", "NAME_0": "Bulgaria", "GID_1": "BGR.7_1", "NAME_1": "Kardzhali", "HASC_1": "BG.KZ", "CARBON": 0.72743657694099995, "POPULATION": 148514.97896400001, "PERCAPCARB": 4.8980687470899998e-06, "UNITTYPE": "STATE", "POPDENSITY": 438153.41138000001, "ORIG_FID": 215 }, "geometry": { "type": "Point", "coordinates": [ 25.441477491000057, 41.527042257000062 ] } },
{ "type": "Feature", "properties": { "GID_0": "BGR", "NAME_0": "Bulgaria", "GID_1": "BGR.8_1", "NAME_1": "Kyustendil", "HASC_1": "BG.KY", "CARBON": 7.0096089830299997, "POPULATION": 127692.892446, "PERCAPCARB": 5.4894276797799999e-05, "UNITTYPE": "STATE", "POPDENSITY": 370663.32201100001, "ORIG_FID": 216 }, "geometry": { "type": "Point", "coordinates": [ 22.869973644000027, 42.255306639000025 ] } },
{ "type": "Feature", "properties": { "GID_0": "BGR", "NAME_0": "Bulgaria", "GID_1": "BGR.9_1", "NAME_1": "Lovech", "HASC_1": "BG.LV", "CARBON": 1.2478883814799999, "POPULATION": 132278.74873, "PERCAPCARB": 9.43377824071e-06, "UNITTYPE": "STATE", "POPDENSITY": 282225.42538199999, "ORIG_FID": 217 }, "geometry": { "type": "Point", "coordinates": [ 24.568800105000037, 43.035258757000065 ] } },
{ "type": "Feature", "properties": { "GID_0": "BGR", "NAME_0": "Bulgaria", "GID_1": "BGR.10_1", "NAME_1": "Montana", "HASC_1": "BG.MT", "CARBON": 0.59378935571299996, "POPULATION": 133773.13785299999, "PERCAPCARB": 4.4387787058299999e-06, "UNITTYPE": "STATE", "POPDENSITY": 319347.52344399999, "ORIG_FID": 218 }, "geometry": { "type": "Point", "coordinates": [ 23.192362787000036, 43.496677233000071 ] } },
{ "type": "Feature", "properties": { "GID_0": "BGR", "NAME_0": "Bulgaria", "GID_1": "BGR.11_1", "NAME_1": "Pazardzhik", "HASC_1": "BG.PZ", "CARBON": 2.5139839657800001, "POPULATION": 262635.02931700001, "PERCAPCARB": 9.5721578812900008e-06, "UNITTYPE": "STATE", "POPDENSITY": 556885.406327, "ORIG_FID": 219 }, "geometry": { "type": "Point", "coordinates": [ 24.140941052000073, 42.133681830000057 ] } },
{ "type": "Feature", "properties": { "GID_0": "BGR", "NAME_0": "Bulgaria", "GID_1": "BGR.12_1", "NAME_1": "Pernik", "HASC_1": "BG.PN", "CARBON": 2.8161275700599999, "POPULATION": 131171.05780800001, "PERCAPCARB": 2.1469122969100001e-05, "UNITTYPE": "STATE", "POPDENSITY": 493027.64956799999, "ORIG_FID": 220 }, "geometry": { "type": "Point", "coordinates": [ 22.853171233000069, 42.61386101100004 ] } },
{ "type": "Feature", "properties": { "GID_0": "BGR", "NAME_0": "Bulgaria", "GID_1": "BGR.13_1", "NAME_1": "Pleven", "HASC_1": "BG.PV", "CARBON": 2.7739258683300001, "POPULATION": 250444.772119, "PERCAPCARB": 1.10759982924e-05, "UNITTYPE": "STATE", "POPDENSITY": 505240.20176299999, "ORIG_FID": 221 }, "geometry": { "type": "Point", "coordinates": [ 24.610918544000072, 43.48611722000004 ] } },
{ "type": "Feature", "properties": { "GID_0": "BGR", "NAME_0": "Bulgaria", "GID_1": "BGR.14_1", "NAME_1": "Plovdiv", "HASC_1": "BG.PD", "CARBON": 5.9403535571099999, "POPULATION": 669542.835142, "PERCAPCARB": 8.8722531932600007e-06, "UNITTYPE": "STATE", "POPDENSITY": 969495.98828000005, "ORIG_FID": 222 }, "geometry": { "type": "Point", "coordinates": [ 24.824903491000043, 42.257364438000025 ] } },
{ "type": "Feature", "properties": { "GID_0": "BGR", "NAME_0": "Bulgaria", "GID_1": "BGR.15_1", "NAME_1": "Razgrad", "HASC_1": "BG.RG", "CARBON": 0.86440985277299998, "POPULATION": 115749.233931, "PERCAPCARB": 7.4679531208599999e-06, "UNITTYPE": "STATE", "POPDENSITY": 391734.79327999998, "ORIG_FID": 223 }, "geometry": { "type": "Point", "coordinates": [ 26.54092025500006, 43.532118918000037 ] } },
{ "type": "Feature", "properties": { "GID_0": "BGR", "NAME_0": "Bulgaria", "GID_1": "BGR.16_1", "NAME_1": "Ruse", "HASC_1": "BG.RS", "CARBON": 7.22311690077, "POPULATION": 208298.81937499999, "PERCAPCARB": 3.4676705909500001e-05, "UNITTYPE": "STATE", "POPDENSITY": 685030.46471099998, "ORIG_FID": 224 }, "geometry": { "type": "Point", "coordinates": [ 25.759216785000035, 43.540589614000055 ] } },
{ "type": "Feature", "properties": { "GID_0": "BGR", "NAME_0": "Bulgaria", "GID_1": "BGR.17_1", "NAME_1": "Shumen", "HASC_1": "BG.SH", "CARBON": 1.36843927378, "POPULATION": 172109.07004399999, "PERCAPCARB": 7.9510003361899998e-06, "UNITTYPE": "STATE", "POPDENSITY": 429731.235911, "ORIG_FID": 225 }, "geometry": { "type": "Point", "coordinates": [ 27.004813679000051, 43.296515571000043 ] } },
{ "type": "Feature", "properties": { "GID_0": "BGR", "NAME_0": "Bulgaria", "GID_1": "BGR.18_1", "NAME_1": "Silistra", "HASC_1": "BG.SI", "CARBON": 0.71444811367799999, "POPULATION": 108740.16003699999, "PERCAPCARB": 6.57023231741e-06, "UNITTYPE": "STATE", "POPDENSITY": 356321.23314099998, "ORIG_FID": 226 }, "geometry": { "type": "Point", "coordinates": [ 27.044927044000076, 43.946163272000035 ] } },
{ "type": "Feature", "properties": { "GID_0": "BGR", "NAME_0": "Bulgaria", "GID_1": "BGR.19_1", "NAME_1": "Sliven", "HASC_1": "BG.SL", "CARBON": 19.422702960700001, "POPULATION": 188996.41799399999, "PERCAPCARB": 0.000102767571824, "UNITTYPE": "STATE", "POPDENSITY": 500879.03793699999, "ORIG_FID": 227 }, "geometry": { "type": "Point", "coordinates": [ 26.241026378000072, 42.67033970500006 ] } },
{ "type": "Feature", "properties": { "GID_0": "BGR", "NAME_0": "Bulgaria", "GID_1": "BGR.20_1", "NAME_1": "Smolyan", "HASC_1": "BG.SM", "CARBON": 0.95110050187200001, "POPULATION": 113951.49473799999, "PERCAPCARB": 8.3465381832600007e-06, "UNITTYPE": "STATE", "POPDENSITY": 318366.22099, "ORIG_FID": 228 }, "geometry": { "type": "Point", "coordinates": [ 24.668089482000028, 41.628891600000031 ] } },
{ "type": "Feature", "properties": { "GID_0": "BGR", "NAME_0": "Bulgaria", "GID_1": "BGR.21_1", "NAME_1": "Sofia", "HASC_1": "BG.SF", "CARBON": 6.42560606205, "POPULATION": 254011.36283, "PERCAPCARB": 2.5296530007400001e-05, "UNITTYPE": "STATE", "POPDENSITY": 324258.42179200001, "ORIG_FID": 229 }, "geometry": { "type": "Point", "coordinates": [ 23.616846085000077, 42.286286852000046 ] } },
{ "type": "Feature", "properties": { "GID_0": "BGR", "NAME_0": "Bulgaria", "GID_1": "BGR.22_1", "NAME_1": "Stara Zagora", "HASC_1": "BG.SZ", "CARBON": 17.021425725299999, "POPULATION": 319975.240467, "PERCAPCARB": 5.319607136e-05, "UNITTYPE": "STATE", "POPDENSITY": 578059.76901000005, "ORIG_FID": 230 }, "geometry": { "type": "Point", "coordinates": [ 25.567329441000027, 42.411911781000072 ] } },
{ "type": "Feature", "properties": { "GID_0": "BGR", "NAME_0": "Bulgaria", "GID_1": "BGR.23_1", "NAME_1": "Targovishte", "HASC_1": "BG.TU", "CARBON": 1.22337168478, "POPULATION": 114169.296487, "PERCAPCARB": 1.07154175635e-05, "UNITTYPE": "STATE", "POPDENSITY": 408780.82325299998, "ORIG_FID": 231 }, "geometry": { "type": "Point", "coordinates": [ 26.366541860000041, 43.171225744000026 ] } },
{ "type": "Feature", "properties": { "GID_0": "BGR", "NAME_0": "Bulgaria", "GID_1": "BGR.24_1", "NAME_1": "Varna", "HASC_1": "BG.VN", "CARBON": 20.735132102400001, "POPULATION": 476597.60688099999, "PERCAPCARB": 4.3506580400299998e-05, "UNITTYPE": "STATE", "POPDENSITY": 1167071.9473300001, "ORIG_FID": 232 }, "geometry": { "type": "Point", "coordinates": [ 27.594929810000053, 43.186205949000055 ] } },
{ "type": "Feature", "properties": { "GID_0": "BGR", "NAME_0": "Bulgaria", "GID_1": "BGR.25_1", "NAME_1": "Veliko Tarnovo", "HASC_1": "BG.VT", "CARBON": 3.4532334641600002, "POPULATION": 242824.57870099999, "PERCAPCARB": 1.42211034922e-05, "UNITTYPE": "STATE", "POPDENSITY": 469819.67913, "ORIG_FID": 233 }, "geometry": { "type": "Point", "coordinates": [ 25.649275259000035, 43.189524019000032 ] } },
{ "type": "Feature", "properties": { "GID_0": "BGR", "NAME_0": "Bulgaria", "GID_1": "BGR.26_1", "NAME_1": "Vidin", "HASC_1": "BG.VD", "CARBON": 2.7561239480199999, "POPULATION": 89731.042506900005, "PERCAPCARB": 3.07153898029e-05, "UNITTYPE": "STATE", "POPDENSITY": 261700.56295699999, "ORIG_FID": 234 }, "geometry": { "type": "Point", "coordinates": [ 22.686209738000059, 43.797294836000049 ] } },
{ "type": "Feature", "properties": { "GID_0": "BGR", "NAME_0": "Bulgaria", "GID_1": "BGR.27_1", "NAME_1": "Vratsa", "HASC_1": "BG.VR", "CARBON": 2.6754620576699999, "POPULATION": 164846.348822, "PERCAPCARB": 1.6230035283100001e-05, "UNITTYPE": "STATE", "POPDENSITY": 396124.25677199999, "ORIG_FID": 235 }, "geometry": { "type": "Point", "coordinates": [ 23.759151746000043, 43.39506726500008 ] } },
{ "type": "Feature", "properties": { "GID_0": "BGR", "NAME_0": "Bulgaria", "GID_1": "BGR.28_1", "NAME_1": "Yambol", "HASC_1": "BG.YA", "CARBON": 1.0453038041, "POPULATION": 123189.439767, "PERCAPCARB": 8.4853361301300004e-06, "UNITTYPE": "STATE", "POPDENSITY": 332490.74460400001, "ORIG_FID": 236 }, "geometry": { "type": "Point", "coordinates": [ 26.629139984000062, 42.295559351000065 ] } },
{ "type": "Feature", "properties": { "GID_0": "BHR", "NAME_0": "Bahrain", "GID_1": "BHR.2_1", "NAME_1": "Central", "HASC_1": "BH.CE", "CARBON": 23.931465148899999, "POPULATION": 416407.500183, "PERCAPCARB": 5.7471263457999997e-05, "UNITTYPE": "STATE", "POPDENSITY": 59603188.321099997, "ORIG_FID": 237 }, "geometry": { "type": "Point", "coordinates": [ 50.551776886000027, 26.159916876000068 ] } },
{ "type": "Feature", "properties": { "GID_0": "BHR", "NAME_0": "Bahrain", "GID_1": "BHR.3_1", "NAME_1": "Muharraq", "HASC_1": "BH.MU", "CARBON": 10.560792923, "POPULATION": 214006.60852099999, "PERCAPCARB": 4.9347975728300003e-05, "UNITTYPE": "STATE", "POPDENSITY": 68589450.503900006, "ORIG_FID": 238 }, "geometry": { "type": "Point", "coordinates": [ 50.631142410000052, 26.262458707000064 ] } },
{ "type": "Feature", "properties": { "GID_0": "BHR", "NAME_0": "Bahrain", "GID_1": "BHR.5_1", "NAME_1": "Southern", "HASC_1": "BH.SO", "CARBON": 14.366591513199999, "POPULATION": 160040.72341400001, "PERCAPCARB": 8.97683489967e-05, "UNITTYPE": "STATE", "POPDENSITY": 4214238.39922, "ORIG_FID": 239 }, "geometry": { "type": "Point", "coordinates": [ 50.553123132000053, 25.984408390000056 ] } },
{ "type": "Feature", "properties": { "GID_0": "BHS", "NAME_0": "Bahamas", "GID_1": "BHS.1_1", "NAME_1": "Acklins", "HASC_1": "BS.AK", "CARBON": 0.0054034327622499998, "POPULATION": 549.93718652400003, "PERCAPCARB": 9.8255453434600008e-06, "UNITTYPE": "STATE", "POPDENSITY": 12695.5261032, "ORIG_FID": 240 }, "geometry": { "type": "Point", "coordinates": [ -74.06500244199998, 22.352083206000032 ] } },
{ "type": "Feature", "properties": { "GID_0": "BHS", "NAME_0": "Bahamas", "GID_1": "BHS.2_1", "NAME_1": "Berry Islands", "HASC_1": "BS.BR", "CARBON": 0.10936959087799999, "POPULATION": 578.49561655499997, "PERCAPCARB": 0.000189058633719, "UNITTYPE": "STATE", "POPDENSITY": 104336.44070599999, "ORIG_FID": 241 }, "geometry": { "type": "Point", "coordinates": [ -77.852182034999942, 25.746321022000075 ] } },
{ "type": "Feature", "properties": { "GID_0": "BHS", "NAME_0": "Bahamas", "GID_1": "BHS.3_1", "NAME_1": "Biminis", "HASC_1": "BS.BI", "CARBON": 0.0, "POPULATION": 1275.75797844, "PERCAPCARB": 0.0, "UNITTYPE": "STATE", "POPDENSITY": 415896.95489400002, "ORIG_FID": 242 }, "geometry": { "type": "Point", "coordinates": [ -79.290346145999933, 25.706945419000078 ] } },
{ "type": "Feature", "properties": { "GID_0": "BHS", "NAME_0": "Bahamas", "GID_1": "BHS.5_1", "NAME_1": "Cat Island", "HASC_1": "BS.CI", "CARBON": 0.0131325344555, "POPULATION": 1362.8025040299999, "PERCAPCARB": 9.6364179084199995e-06, "UNITTYPE": "STATE", "POPDENSITY": 41474.0804479, "ORIG_FID": 243 }, "geometry": { "type": "Point", "coordinates": [ -75.410419464999961, 24.172916413000053 ] } },
{ "type": "Feature", "properties": { "GID_0": "BHS", "NAME_0": "Bahamas", "GID_1": "BHS.6_1", "NAME_1": "Central Abaco", "HASC_1": "BS.CB", "CARBON": 0.118673368823, "POPULATION": 8535.7801932099992, "PERCAPCARB": 1.3903048829299999e-05, "UNITTYPE": "STATE", "POPDENSITY": 132557.341158, "ORIG_FID": 244 }, "geometry": { "type": "Point", "coordinates": [ -77.174030303999984, 26.309988245000056 ] } },
{ "type": "Feature", "properties": { "GID_0": "BHS", "NAME_0": "Bahamas", "GID_1": "BHS.7_1", "NAME_1": "Central Andros", "HASC_1": "BS.CN", "CARBON": 0.0214594493445, "POPULATION": 1502.6632502800001, "PERCAPCARB": 1.4280943744800001e-05, "UNITTYPE": "STATE", "POPDENSITY": 13941.1539467, "ORIG_FID": 245 }, "geometry": { "type": "Point", "coordinates": [ -77.955482303999986, 24.460166825000044 ] } },
{ "type": "Feature", "properties": { "GID_0": "BHS", "NAME_0": "Bahamas", "GID_1": "BHS.10_1", "NAME_1": "Crooked Island", "HASC_1": "BS.CK", "CARBON": 0.0, "POPULATION": 342.78070258299999, "PERCAPCARB": 0.0, "UNITTYPE": "STATE", "POPDENSITY": 11731.1525248, "ORIG_FID": 246 }, "geometry": { "type": "Point", "coordinates": [ -74.263334274999977, 22.755275726000036 ] } },
{ "type": "Feature", "properties": { "GID_0": "BHS", "NAME_0": "Bahamas", "GID_1": "BHS.11_1", "NAME_1": "East Grand Bahama", "HASC_1": "BS.EB", "CARBON": 0.094378086592800003, "POPULATION": 24278.457904800001, "PERCAPCARB": 3.8873180068799998e-06, "UNITTYPE": "STATE", "POPDENSITY": 464254.95711299998, "ORIG_FID": 247 }, "geometry": { "type": "Point", "coordinates": [ -78.163982880999981, 26.67287084000003 ] } },
{ "type": "Feature", "properties": { "GID_0": "BHS", "NAME_0": "Bahamas", "GID_1": "BHS.12_1", "NAME_1": "Exuma", "HASC_1": "BS.EM", "CARBON": 0.318474590778, "POPULATION": 6955.08102822, "PERCAPCARB": 4.5790205676399998e-05, "UNITTYPE": "STATE", "POPDENSITY": 225856.16123500001, "ORIG_FID": 248 }, "geometry": { "type": "Point", "coordinates": [ -75.914237975999981, 23.593054772000073 ] } },
{ "type": "Feature", "properties": { "GID_0": "BHS", "NAME_0": "Bahamas", "GID_1": "BHS.16_1", "NAME_1": "Inagua", "HASC_1": "BS.IN", "CARBON": 0.033276404094100001, "POPULATION": 865.65065225900003, "PERCAPCARB": 3.8440916098399997e-05, "UNITTYPE": "STATE", "POPDENSITY": 5929.9274011500002, "ORIG_FID": 249 }, "geometry": { "type": "Point", "coordinates": [ -73.349682522999956, 21.078338090000045 ] } },